[
  {
    "id": 45,
    "meeting_name": "中野例会",
    "next_date": "2026-06-11",
    "start_time": "18:30",
    "end_time": "20:30",
    "prefecture": "東京都",
    "address": "〒164-0001 東京都中野区中野５丁目６８−７",
    "latitude": 35.7091842,
    "longitude": 139.6652819
  },
  {
    "id": 87,
    "meeting_name": "高津例会",
    "next_date": "2026-06-11",
    "start_time": "19:00",
    "end_time": "20:45",
    "prefecture": "神奈川県",
    "address": "〒213-8570 神奈川県川崎市高津区下作延２丁目８−１",
    "latitude": 35.5995612,
    "longitude": 139.6080924
  },
  {
    "id": 108,
    "meeting_name": "湘南台例会",
    "next_date": "2026-06-11",
    "start_time": "19:00",
    "end_time": "21:00",
    "prefecture": "神奈川県",
    "address": "〒252-0804 神奈川県藤沢市湘南台１丁目８",
    "latitude": 35.3947681,
    "longitude": 139.4688468
  },
  {
    "id": 246,
    "meeting_name": "昭島例会",
    "next_date": "2026-06-11",
    "start_time": "19:00",
    "end_time": "21:00",
    "prefecture": "東京都",
    "address": "〒196-0003 東京都昭島市松原町１丁目２−２５",
    "latitude": 35.7125926,
    "longitude": 139.3577752
  },
  {
    "id": 32,
    "meeting_name": "練馬石神井懇談会",
    "next_date": "2026-06-12",
    "start_time": "18:30",
    "end_time": "20:30",
    "prefecture": "東京都",
    "address": "",
    "latitude": 35.7451911,
    "longitude": 139.6015934
  },
  {
    "id": 19,
    "meeting_name": "荒川例会",
    "next_date": "2026-06-12",
    "start_time": "19:00",
    "end_time": "20:30",
    "prefecture": "東京都",
    "address": "〒116-0014 東京都荒川区東日暮里１丁目１７−１３ 都営東日暮里一丁目アパート１３号棟",
    "latitude": 35.7298096,
    "longitude": 139.7899732
  },
  {
    "id": 416,
    "meeting_name": "荒川懇談会",
    "next_date": "2026-06-12",
    "start_time": "19:00",
    "end_time": "20:30",
    "prefecture": "東京都",
    "address": "東日暮里ふれあい館, 日本、〒116-0014 東京都荒川区東日暮里１丁目１７−",
    "latitude": 35.7300027,
    "longitude": 139.7896524
  },
  {
    "id": 18,
    "meeting_name": "中央断酒会　例会",
    "next_date": "2026-06-13",
    "start_time": "09:30",
    "end_time": "11:00",
    "prefecture": "東京都",
    "address": "",
    "latitude": 35.6911512,
    "longitude": 139.7770967
  },
  {
    "id": 483,
    "meeting_name": "江東断酒会　第１例会",
    "next_date": "2026-06-13",
    "start_time": "09:30",
    "end_time": "11:45",
    "prefecture": "東京都",
    "address": "富岡区民館, 日本、〒135-0047 東京都江東区富岡１丁目１６−１２",
    "latitude": null,
    "longitude": null
  },
  {
    "id": 172,
    "meeting_name": "こころの泉（家族会）",
    "next_date": "2026-06-13",
    "start_time": "13:30",
    "end_time": "15:30",
    "prefecture": "神奈川県",
    "address": "〒253-0044 神奈川県茅ヶ崎市新栄町１２−１２ 茅ヶ崎トラストビル ４階",
    "latitude": 35.332342,
    "longitude": 139.4046304
  },
  {
    "id": 62,
    "meeting_name": "さいたま例会",
    "next_date": "2026-06-13",
    "start_time": "17:00",
    "end_time": "18:15",
    "prefecture": "埼玉県",
    "address": "〒330-0055 埼玉県さいたま市浦和区東高砂町１１−１",
    "latitude": 35.858568,
    "longitude": 139.6590796
  },
  {
    "id": 71,
    "meeting_name": "アメシスト例会(女性限定)",
    "next_date": "2026-06-13",
    "start_time": "18:00",
    "end_time": "20:30",
    "prefecture": "神奈川県",
    "address": "〒221-0835 神奈川県横浜市神奈川区鶴屋町２丁目２４−２",
    "latitude": 35.4684095,
    "longitude": 139.6207449
  },
  {
    "id": 11,
    "meeting_name": "江東例会",
    "next_date": "2026-06-13",
    "start_time": "18:30",
    "end_time": "20:45",
    "prefecture": "東京都",
    "address": "〒135-0047 東京都江東区富岡１丁目１６−１２",
    "latitude": 35.6717671,
    "longitude": 139.7985648
  },
  {
    "id": 69,
    "meeting_name": "さいたま例会",
    "next_date": "2026-06-13",
    "start_time": "19:00",
    "end_time": "20:30",
    "prefecture": "埼玉県",
    "address": "〒330-0063 埼玉県さいたま市東浦和区高砂１１−１",
    "latitude": 35.8574923,
    "longitude": 139.6496729
  },
  {
    "id": 143,
    "meeting_name": "さいたま市浦和区東高砂例会",
    "next_date": "2026-06-13",
    "start_time": "19:00",
    "end_time": "20:30",
    "prefecture": "埼玉県",
    "address": "さいたま市浦和区東高砂町11-1 　浦和パルコ10F",
    "latitude": 35.858568,
    "longitude": 139.6590796
  },
  {
    "id": 167,
    "meeting_name": "秩父市上宮地例会",
    "next_date": "2026-06-14",
    "start_time": "13:00",
    "end_time": "15:00",
    "prefecture": "埼玉県",
    "address": "秩父市上宮地町27-5",
    "latitude": 36.0026892,
    "longitude": 139.0906726
  },
  {
    "id": 521,
    "meeting_name": "【日程変更】秩父断酒会",
    "next_date": "2026-06-14",
    "start_time": "13:00",
    "end_time": "15:00",
    "prefecture": "埼玉県",
    "address": "秩父市上宮地町27-5",
    "latitude": null,
    "longitude": null
  },
  {
    "id": 9,
    "meeting_name": "世田谷例会",
    "next_date": "2026-06-14",
    "start_time": "14:00",
    "end_time": "16:00",
    "prefecture": "東京都",
    "address": "〒156-0052 東京都世田谷区経堂３丁目３７−１３",
    "latitude": 35.651765,
    "longitude": 139.632168
  },
  {
    "id": 38,
    "meeting_name": "新宿第２例会",
    "next_date": "2026-06-15",
    "start_time": "18:00",
    "end_time": "19:30",
    "prefecture": "東京都",
    "address": "〒169-0075 東京都新宿区高田馬場２丁目１８−１ 新宿区戸塚特別出張所等区民施設",
    "latitude": 35.7144575,
    "longitude": 139.7051045
  },
  {
    "id": 466,
    "meeting_name": "白菊家族会(夜）",
    "next_date": "2026-06-16",
    "start_time": "09:30",
    "end_time": "11:30",
    "prefecture": "東京都",
    "address": "IKE･Biz としま産業振興プラザ, 日本、〒171-0021 東京都豊島区西池袋２丁目３７−４ Ike･Biz としま産業振興プラザ",
    "latitude": null,
    "longitude": null
  },
  {
    "id": 550,
    "meeting_name": "京王断酒会　調布第３懇談会",
    "next_date": "2026-06-17",
    "start_time": "09:30",
    "end_time": "11:30",
    "prefecture": "東京都",
    "address": "",
    "latitude": null,
    "longitude": null
  },
  {
    "id": 554,
    "meeting_name": "■国分寺例会",
    "next_date": "2026-06-17",
    "start_time": "10:00",
    "end_time": "12:00",
    "prefecture": "東京都",
    "address": "〒185-0011 東京都国分寺市本多１丁目７−１",
    "latitude": null,
    "longitude": null
  },
  {
    "id": 248,
    "meeting_name": "国分寺例会",
    "next_date": "2026-06-17",
    "start_time": "19:00",
    "end_time": "21:00",
    "prefecture": "東京都",
    "address": "〒185-0011 東京都国分寺市本多１丁目７−１",
    "latitude": 35.7053251,
    "longitude": 139.4825249
  }
]