[
  {
    "id": 924,
    "facility_name": "こなんホスピタル",
    "address": "松江市宍道町白石１２９−１",
    "lat": 35.414543,
    "lng": 132.926224,
    "meeting_name": "こなんホスピタル家族教室",
    "schedule": "第4 木曜日 13:30～15:30",
    "contact_phone": "",
    "prefecture": "島根県",
    "next_date": null,
    "start_time": null,
    "end_time": null,
    "recurrence": null,
    "building_name": null,
    "meeting_type": "家族会",
    "official_url": "http://dansyukai.com"
  },
  {
    "id": 925,
    "facility_name": "川津公民館",
    "address": "松江市西川津町３４０５−５",
    "lat": 35.481937,
    "lng": 133.077805,
    "meeting_name": "例会",
    "schedule": "第1 金曜日 19:00～21:00",
    "contact_phone": "",
    "prefecture": "島根県",
    "next_date": null,
    "start_time": null,
    "end_time": null,
    "recurrence": null,
    "building_name": null,
    "meeting_type": "通常",
    "official_url": "http://dansyukai.com"
  },
  {
    "id": 926,
    "facility_name": "持田公民館",
    "address": "松江市東持田町６１",
    "lat": 35.499016,
    "lng": 133.080093,
    "meeting_name": "例会",
    "schedule": "第3 月曜日 19:00～21:00",
    "contact_phone": "",
    "prefecture": "島根県",
    "next_date": null,
    "start_time": null,
    "end_time": null,
    "recurrence": null,
    "building_name": null,
    "meeting_type": "通常",
    "official_url": "http://dansyukai.com"
  },
  {
    "id": 927,
    "facility_name": "城北公民館",
    "address": "松江市北堀町４３",
    "lat": 35.477654,
    "lng": 133.054642,
    "meeting_name": "例会",
    "schedule": "第3 金曜日 19:00～21:00",
    "contact_phone": "",
    "prefecture": "島根県",
    "next_date": null,
    "start_time": null,
    "end_time": null,
    "recurrence": null,
    "building_name": null,
    "meeting_type": "通常",
    "official_url": "http://dansyukai.com"
  },
  {
    "id": 928,
    "facility_name": "鹿島公民館",
    "address": "松江市鹿島町佐陀本郷６４０−１",
    "lat": 35.523239,
    "lng": 132.993057,
    "meeting_name": "例会",
    "schedule": "第4 金曜日 19:30～21:00",
    "contact_phone": "",
    "prefecture": "島根県",
    "next_date": null,
    "start_time": null,
    "end_time": null,
    "recurrence": null,
    "building_name": null,
    "meeting_type": "通常",
    "official_url": "http://dansyukai.com"
  },
  {
    "id": 929,
    "facility_name": "八束公民館",
    "address": "松江市八束町波入２０６０",
    "lat": 35.492077,
    "lng": 133.174088,
    "meeting_name": "例会",
    "schedule": "第1 火曜日 19:00～21:00",
    "contact_phone": "",
    "prefecture": "島根県",
    "next_date": null,
    "start_time": null,
    "end_time": null,
    "recurrence": null,
    "building_name": null,
    "meeting_type": "通常",
    "official_url": "http://dansyukai.com"
  },
  {
    "id": 930,
    "facility_name": "島根公民館",
    "address": "松江市島根町加賀１４１４",
    "lat": 35.557938,
    "lng": 133.077332,
    "meeting_name": "例会",
    "schedule": "第2 月曜日 19:00～21:00",
    "contact_phone": "",
    "prefecture": "島根県",
    "next_date": null,
    "start_time": null,
    "end_time": null,
    "recurrence": null,
    "building_name": null,
    "meeting_type": "通常",
    "official_url": "http://dansyukai.com"
  },
  {
    "id": 931,
    "facility_name": "美保関公民館",
    "address": "松江市美保関町下宇部尾５５６−１",
    "lat": 35.540852,
    "lng": 133.179398,
    "meeting_name": "例会",
    "schedule": "第4 月曜日 19:00～21:00",
    "contact_phone": "",
    "prefecture": "島根県",
    "next_date": null,
    "start_time": null,
    "end_time": null,
    "recurrence": null,
    "building_name": null,
    "meeting_type": "通常",
    "official_url": "http://dansyukai.com"
  },
  {
    "id": 932,
    "facility_name": "乃木公民館",
    "address": "松江市浜乃木５丁目１−５",
    "lat": 35.445644,
    "lng": 133.055435,
    "meeting_name": "例会",
    "schedule": "第1･3 水曜日 19:00～21:00",
    "contact_phone": "",
    "prefecture": "島根県",
    "next_date": null,
    "start_time": null,
    "end_time": null,
    "recurrence": null,
    "building_name": null,
    "meeting_type": "通常",
    "official_url": "http://dansyukai.com"
  },
  {
    "id": 933,
    "facility_name": "玉湯公民館",
    "address": "松江市玉湯町湯町１７９６",
    "lat": 35.431225,
    "lng": 133.006668,
    "meeting_name": "例会",
    "schedule": "第4 火曜日 19:00～21:00",
    "contact_phone": "",
    "prefecture": "島根県",
    "next_date": null,
    "start_time": null,
    "end_time": null,
    "recurrence": null,
    "building_name": null,
    "meeting_type": "通常",
    "official_url": "http://dansyukai.com"
  },
  {
    "id": 934,
    "facility_name": "八雲公民館",
    "address": "松江市八雲町西岩坂３５５−１",
    "lat": 35.387711,
    "lng": 133.103394,
    "meeting_name": "例会",
    "schedule": "第4 水曜日 19:00～21:00",
    "contact_phone": "",
    "prefecture": "島根県",
    "next_date": null,
    "start_time": null,
    "end_time": null,
    "recurrence": null,
    "building_name": null,
    "meeting_type": "通常",
    "official_url": "http://dansyukai.com"
  },
  {
    "id": 935,
    "facility_name": "赤江交流センター",
    "address": "安来市上坂田町５７４",
    "lat": 35.429527,
    "lng": 133.22644,
    "meeting_name": "例会",
    "schedule": "第1 土曜日 19:00～21:00",
    "contact_phone": "",
    "prefecture": "島根県",
    "next_date": null,
    "start_time": null,
    "end_time": null,
    "recurrence": null,
    "building_name": null,
    "meeting_type": "通常",
    "official_url": "http://dansyukai.com"
  },
  {
    "id": 936,
    "facility_name": "東出雲ふれあい会館",
    "address": "松江市東出雲町揖屋１１３９−２",
    "lat": 35.429531,
    "lng": 133.152374,
    "meeting_name": "例会",
    "schedule": "第2 金曜日 19:00～21:00",
    "contact_phone": "",
    "prefecture": "島根県",
    "next_date": null,
    "start_time": null,
    "end_time": null,
    "recurrence": null,
    "building_name": null,
    "meeting_type": "通常",
    "official_url": "http://dansyukai.com"
  },
  {
    "id": 937,
    "facility_name": "広瀬中央交流センター",
    "address": "安来市広瀬町広瀬８１１",
    "lat": 35.36673,
    "lng": 133.173859,
    "meeting_name": "例会",
    "schedule": "第4 金曜日 19:00～21:00",
    "contact_phone": "",
    "prefecture": "島根県",
    "next_date": null,
    "start_time": null,
    "end_time": null,
    "recurrence": null,
    "building_name": null,
    "meeting_type": "通常",
    "official_url": "http://dansyukai.com"
  },
  {
    "id": 938,
    "facility_name": "伯太中央交流センター",
    "address": "安来市伯太町東母里５７２−１",
    "lat": 35.350574,
    "lng": 133.287094,
    "meeting_name": "例会",
    "schedule": "第3 火曜日 19:00～21:00",
    "contact_phone": "",
    "prefecture": "島根県",
    "next_date": null,
    "start_time": null,
    "end_time": null,
    "recurrence": null,
    "building_name": null,
    "meeting_type": "通常",
    "official_url": "http://dansyukai.com"
  },
  {
    "id": 939,
    "facility_name": "横田コミュニティセンター",
    "address": "仁多郡奥出雲町横田１０３７",
    "lat": 35.179379,
    "lng": 133.093628,
    "meeting_name": "例会",
    "schedule": "第1 土曜日 19:00～21:00",
    "contact_phone": "",
    "prefecture": "島根県",
    "next_date": null,
    "start_time": null,
    "end_time": null,
    "recurrence": null,
    "building_name": null,
    "meeting_type": "通常",
    "official_url": "http://dansyukai.com"
  },
  {
    "id": 940,
    "facility_name": "亀嵩公民館",
    "address": "仁多郡奥出雲町亀嵩２２１５",
    "lat": 35.225025,
    "lng": 133.081482,
    "meeting_name": "例会",
    "schedule": "第2 土曜日 19:00～21:00",
    "contact_phone": "",
    "prefecture": "島根県",
    "next_date": null,
    "start_time": null,
    "end_time": null,
    "recurrence": null,
    "building_name": null,
    "meeting_type": "通常",
    "official_url": "http://dansyukai.com"
  },
  {
    "id": 941,
    "facility_name": "三成中央公民館",
    "address": "仁多郡奥出雲町三成４４５−３",
    "lat": 35.19735,
    "lng": 133.005692,
    "meeting_name": "例会",
    "schedule": "第3 土曜日 19:00～21:00",
    "contact_phone": "",
    "prefecture": "島根県",
    "next_date": null,
    "start_time": null,
    "end_time": null,
    "recurrence": null,
    "building_name": null,
    "meeting_type": "通常",
    "official_url": "http://dansyukai.com"
  },
  {
    "id": 942,
    "facility_name": "阿井公民館",
    "address": "仁多郡奥出雲町上阿井１８８−１",
    "lat": 35.118008,
    "lng": 132.926514,
    "meeting_name": "例会",
    "schedule": "第4 土曜日 19:00～21:00",
    "contact_phone": "",
    "prefecture": "島根県",
    "next_date": null,
    "start_time": null,
    "end_time": null,
    "recurrence": null,
    "building_name": null,
    "meeting_type": "通常",
    "official_url": "http://dansyukai.com"
  },
  {
    "id": 943,
    "facility_name": "加茂健康福祉センター　かもてらす",
    "address": "雲南市加茂町宇治３２８",
    "lat": 35.341743,
    "lng": 132.905594,
    "meeting_name": "例会",
    "schedule": "第1 月曜日 19:00～21:00",
    "contact_phone": "",
    "prefecture": "島根県",
    "next_date": null,
    "start_time": null,
    "end_time": null,
    "recurrence": null,
    "building_name": null,
    "meeting_type": "通常",
    "official_url": "http://dansyukai.com"
  },
  {
    "id": 944,
    "facility_name": "大東町地域交流センター",
    "address": "雲南市大東町大東１０３１",
    "lat": 35.332077,
    "lng": 132.96611,
    "meeting_name": "例会",
    "schedule": "第2 火曜日 19:00～21:00",
    "contact_phone": "",
    "prefecture": "島根県",
    "next_date": null,
    "start_time": null,
    "end_time": null,
    "recurrence": null,
    "building_name": null,
    "meeting_type": "通常",
    "official_url": "http://dansyukai.com"
  },
  {
    "id": 945,
    "facility_name": "下熊谷地域サブセンター",
    "address": "雲南市木次町下熊谷１０９６−１",
    "lat": 35.287823,
    "lng": 132.890579,
    "meeting_name": "例会",
    "schedule": "第3 月曜日 19:00～21:00",
    "contact_phone": "",
    "prefecture": "島根県",
    "next_date": null,
    "start_time": null,
    "end_time": null,
    "recurrence": null,
    "building_name": null,
    "meeting_type": "通常",
    "official_url": "http://dansyukai.com"
  },
  {
    "id": 946,
    "facility_name": "吉田ふる里センター",
    "address": "雲南市吉田町深野６１−４",
    "lat": 35.20219,
    "lng": 132.907761,
    "meeting_name": "例会",
    "schedule": "第1 木曜日 19:00～21:00",
    "contact_phone": "",
    "prefecture": "島根県",
    "next_date": null,
    "start_time": null,
    "end_time": null,
    "recurrence": null,
    "building_name": null,
    "meeting_type": "通常",
    "official_url": "http://dansyukai.com"
  },
  {
    "id": 947,
    "facility_name": "掛合まめなかセンター",
    "address": "雲南市掛合町掛合８２１−１",
    "lat": 35.190224,
    "lng": 132.814087,
    "meeting_name": "例会",
    "schedule": "第3 水曜日 19:00～21:00",
    "contact_phone": "",
    "prefecture": "島根県",
    "next_date": null,
    "start_time": null,
    "end_time": null,
    "recurrence": null,
    "building_name": null,
    "meeting_type": "通常",
    "official_url": "http://dansyukai.com"
  },
  {
    "id": 948,
    "facility_name": "来島保健センター",
    "address": "飯石郡飯南町野萱１８３１−２",
    "lat": 35.034466,
    "lng": 132.757492,
    "meeting_name": "例会",
    "schedule": "第4 金曜日 19:00～21:00",
    "contact_phone": "",
    "prefecture": "島根県",
    "next_date": null,
    "start_time": null,
    "end_time": null,
    "recurrence": null,
    "building_name": null,
    "meeting_type": "通常",
    "official_url": "http://dansyukai.com"
  },
  {
    "id": 949,
    "facility_name": "三刀屋健康福祉センター",
    "address": "雲南市三刀屋町三刀屋１４４−１",
    "lat": 35.289917,
    "lng": 132.871552,
    "meeting_name": "例会",
    "schedule": "最終週 不定期 19:00～21:00 毎月29日開催",
    "contact_phone": "",
    "prefecture": "島根県",
    "next_date": null,
    "start_time": null,
    "end_time": null,
    "recurrence": null,
    "building_name": null,
    "meeting_type": "通常",
    "official_url": "http://dansyukai.com"
  },
  {
    "id": 950,
    "facility_name": "地域生活支援センター　ふあっと",
    "address": "出雲市武志町６９３−１",
    "lat": 35.395473,
    "lng": 132.772339,
    "meeting_name": "例会",
    "schedule": "第1 木曜日 19:00～21:00",
    "contact_phone": "",
    "prefecture": "島根県",
    "next_date": null,
    "start_time": null,
    "end_time": null,
    "recurrence": null,
    "building_name": null,
    "meeting_type": "通常",
    "official_url": "http://dansyukai.com"
  },
  {
    "id": 951,
    "facility_name": "須佐コミュニティセンター",
    "address": "出雲市佐田町反邊１７４７−６",
    "lat": 35.244701,
    "lng": 132.711639,
    "meeting_name": "例会",
    "schedule": "第2 金曜日 19:00～21:00",
    "contact_phone": "",
    "prefecture": "島根県",
    "next_date": null,
    "start_time": null,
    "end_time": null,
    "recurrence": null,
    "building_name": null,
    "meeting_type": "通常",
    "official_url": "http://dansyukai.com"
  },
  {
    "id": 952,
    "facility_name": "出雲保健所",
    "address": "出雲市塩冶町２２３−１",
    "lat": 35.346767,
    "lng": 132.751068,
    "meeting_name": "例会",
    "schedule": "第3 木曜日 19:00～21:00",
    "contact_phone": "",
    "prefecture": "島根県",
    "next_date": null,
    "start_time": null,
    "end_time": null,
    "recurrence": null,
    "building_name": null,
    "meeting_type": "通常",
    "official_url": "http://dansyukai.com"
  },
  {
    "id": 953,
    "facility_name": "高松コミュニティセンター",
    "address": "出雲市松寄下町７６１番地１",
    "lat": 35.366962,
    "lng": 132.721909,
    "meeting_name": "例会",
    "schedule": "最終週 不定期 19:00～21:00 毎月30日開催",
    "contact_phone": "",
    "prefecture": "島根県",
    "next_date": null,
    "start_time": null,
    "end_time": null,
    "recurrence": null,
    "building_name": null,
    "meeting_type": "通常",
    "official_url": "http://dansyukai.com"
  },
  {
    "id": 954,
    "facility_name": "多伎地域福祉センター",
    "address": "出雲市多伎町小田５０",
    "lat": 35.284306,
    "lng": 132.62674,
    "meeting_name": "例会",
    "schedule": "第1 月曜日 19:00～21:00",
    "contact_phone": "",
    "prefecture": "島根県",
    "next_date": null,
    "start_time": null,
    "end_time": null,
    "recurrence": null,
    "building_name": null,
    "meeting_type": "通常",
    "official_url": "http://dansyukai.com"
  },
  {
    "id": 955,
    "facility_name": "荒木サポートセンター",
    "address": "出雲市大社町北荒木３８９−２",
    "lat": 35.383183,
    "lng": 132.690125,
    "meeting_name": "例会",
    "schedule": "第2 火曜日 19:00～21:00",
    "contact_phone": "",
    "prefecture": "島根県",
    "next_date": null,
    "start_time": null,
    "end_time": null,
    "recurrence": null,
    "building_name": null,
    "meeting_type": "通常",
    "official_url": "http://dansyukai.com"
  },
  {
    "id": 956,
    "facility_name": "湖陵コミュニティセンター",
    "address": "出雲市湖陵町二部１３２０",
    "lat": 35.322559,
    "lng": 132.675247,
    "meeting_name": "例会",
    "schedule": "第4 金曜日 19:00～21:00",
    "contact_phone": "",
    "prefecture": "島根県",
    "next_date": null,
    "start_time": null,
    "end_time": null,
    "recurrence": null,
    "building_name": null,
    "meeting_type": "通常",
    "official_url": "http://dansyukai.com"
  },
  {
    "id": 957,
    "facility_name": "久木ふれあいプラザ",
    "address": "出雲市斐川町福富",
    "lat": 35.404778,
    "lng": 132.826645,
    "meeting_name": "例会",
    "schedule": "第2･4 木曜日 19:00～21:00",
    "contact_phone": "",
    "prefecture": "島根県",
    "next_date": null,
    "start_time": null,
    "end_time": null,
    "recurrence": null,
    "building_name": null,
    "meeting_type": "通常",
    "official_url": "http://dansyukai.com"
  },
  {
    "id": 958,
    "facility_name": "平田コミュニティセンター",
    "address": "出雲市平田町９１１",
    "lat": 35.436729,
    "lng": 132.823074,
    "meeting_name": "例会",
    "schedule": "第2･4 水曜日 19:00～21:00",
    "contact_phone": "",
    "prefecture": "島根県",
    "next_date": null,
    "start_time": null,
    "end_time": null,
    "recurrence": null,
    "building_name": null,
    "meeting_type": "通常",
    "official_url": "http://dansyukai.com"
  },
  {
    "id": 959,
    "facility_name": "仁摩農村環境改善センター",
    "address": "大田市仁摩町仁万５４０−１",
    "lat": 35.152229,
    "lng": 132.408173,
    "meeting_name": "例会",
    "schedule": "第1 金曜日 19:00～21:00",
    "contact_phone": "",
    "prefecture": "島根県",
    "next_date": null,
    "start_time": null,
    "end_time": null,
    "recurrence": null,
    "building_name": null,
    "meeting_type": "通常",
    "official_url": "http://dansyukai.com"
  },
  {
    "id": 960,
    "facility_name": "温泉津保健センター",
    "address": "大田市温泉津町小浜イ486番地",
    "lat": 35.08913,
    "lng": 132.354904,
    "meeting_name": "例会",
    "schedule": "第3 水曜日 19:00～21:00",
    "contact_phone": "",
    "prefecture": "島根県",
    "next_date": null,
    "start_time": null,
    "end_time": null,
    "recurrence": null,
    "building_name": null,
    "meeting_type": "通常",
    "official_url": "http://dansyukai.com"
  },
  {
    "id": 961,
    "facility_name": "大田市民センター",
    "address": "大田市大田町大田イ１２８",
    "lat": 35.194576,
    "lng": 132.519653,
    "meeting_name": "例会",
    "schedule": "第4 月曜日 19:00～21:00",
    "contact_phone": "",
    "prefecture": "島根県",
    "next_date": null,
    "start_time": null,
    "end_time": null,
    "recurrence": null,
    "building_name": null,
    "meeting_type": "通常",
    "official_url": "http://dansyukai.com"
  },
  {
    "id": 962,
    "facility_name": "川本保健センター",
    "address": "邑智郡川本町",
    "lat": 34.995213,
    "lng": 132.49585,
    "meeting_name": "例会",
    "schedule": "第1 木曜日 19:00～21:00",
    "contact_phone": "",
    "prefecture": "島根県",
    "next_date": null,
    "start_time": null,
    "end_time": null,
    "recurrence": null,
    "building_name": null,
    "meeting_type": "通常",
    "official_url": "http://dansyukai.com"
  },
  {
    "id": 963,
    "facility_name": "みさと館",
    "address": "邑智郡美郷町粕渕１６８",
    "lat": 35.095737,
    "lng": 132.599747,
    "meeting_name": "例会",
    "schedule": "第2 水曜日 19:00～21:00",
    "contact_phone": "",
    "prefecture": "島根県",
    "next_date": null,
    "start_time": null,
    "end_time": null,
    "recurrence": null,
    "building_name": null,
    "meeting_type": "通常",
    "official_url": "http://dansyukai.com"
  },
  {
    "id": 964,
    "facility_name": "田所公民館",
    "address": "邑智郡邑南町下田所２８２−１",
    "lat": 34.849773,
    "lng": 132.504089,
    "meeting_name": "例会",
    "schedule": "第3 土曜日 19:00～21:00",
    "contact_phone": "",
    "prefecture": "島根県",
    "next_date": null,
    "start_time": null,
    "end_time": null,
    "recurrence": null,
    "building_name": null,
    "meeting_type": "通常",
    "official_url": "http://dansyukai.com"
  },
  {
    "id": 965,
    "facility_name": "江津保健センター",
    "address": "江津市嘉久志町イ８９９−７４",
    "lat": 35.004784,
    "lng": 132.214111,
    "meeting_name": "例会",
    "schedule": "第1･2･4 木曜日 19:00～21:00",
    "contact_phone": "",
    "prefecture": "島根県",
    "next_date": null,
    "start_time": null,
    "end_time": null,
    "recurrence": null,
    "building_name": null,
    "meeting_type": "通常",
    "official_url": "http://dansyukai.com"
  },
  {
    "id": 966,
    "facility_name": "桜江保健センター",
    "address": "江津市桜江町川戸１１−１",
    "lat": 34.950287,
    "lng": 132.351212,
    "meeting_name": "例会",
    "schedule": "第3 木曜日 19:00～21:00",
    "contact_phone": "",
    "prefecture": "島根県",
    "next_date": null,
    "start_time": null,
    "end_time": null,
    "recurrence": null,
    "building_name": null,
    "meeting_type": "通常",
    "official_url": "http://dansyukai.com"
  },
  {
    "id": 967,
    "facility_name": "浜田合同庁舎",
    "address": "浜田市片庭町２５４",
    "lat": 34.897594,
    "lng": 132.071365,
    "meeting_name": "例会",
    "schedule": "第1 火曜日 19:00～21:00",
    "contact_phone": "",
    "prefecture": "島根県",
    "next_date": null,
    "start_time": null,
    "end_time": null,
    "recurrence": null,
    "building_name": null,
    "meeting_type": "通常",
    "official_url": "http://dansyukai.com"
  },
  {
    "id": 968,
    "facility_name": "旭保健センター",
    "address": "浜田市旭町今市６４１−１",
    "lat": 34.859154,
    "lng": 132.258759,
    "meeting_name": "例会",
    "schedule": "第1 木曜日 19:00～21:00",
    "contact_phone": "",
    "prefecture": "島根県",
    "next_date": null,
    "start_time": null,
    "end_time": null,
    "recurrence": null,
    "building_name": null,
    "meeting_type": "通常",
    "official_url": "http://dansyukai.com"
  },
  {
    "id": 969,
    "facility_name": "弥栄会館",
    "address": "浜田市弥栄町長安本郷５４４−１",
    "lat": 34.77425,
    "lng": 132.113953,
    "meeting_name": "例会",
    "schedule": "第2 火曜日 19:00～21:00",
    "contact_phone": "",
    "prefecture": "島根県",
    "next_date": null,
    "start_time": null,
    "end_time": null,
    "recurrence": null,
    "building_name": null,
    "meeting_type": "通常",
    "official_url": "http://dansyukai.com"
  },
  {
    "id": 970,
    "facility_name": "三隅公民館",
    "address": "浜田市三隅町向野田５８１",
    "lat": 34.772945,
    "lng": 131.960648,
    "meeting_name": "例会",
    "schedule": "第2 金曜日 19:00～21:00",
    "contact_phone": "",
    "prefecture": "島根県",
    "next_date": null,
    "start_time": null,
    "end_time": null,
    "recurrence": null,
    "building_name": null,
    "meeting_type": "通常",
    "official_url": "http://dansyukai.com"
  },
  {
    "id": 971,
    "facility_name": "浜田市総合福祉センター",
    "address": "浜田市野原町８５９−１",
    "lat": 34.885452,
    "lng": 132.077423,
    "meeting_name": "例会",
    "schedule": "第3 火曜日 19:00～21:00",
    "contact_phone": "",
    "prefecture": "島根県",
    "next_date": null,
    "start_time": null,
    "end_time": null,
    "recurrence": null,
    "building_name": null,
    "meeting_type": "通常",
    "official_url": "http://dansyukai.com"
  },
  {
    "id": 972,
    "facility_name": "みどりかいかん",
    "address": "浜田市金城町七条 金城下来原171",
    "lat": 34.857094,
    "lng": 132.143265,
    "meeting_name": "例会",
    "schedule": "第3 金曜日 19:00～21:00",
    "contact_phone": "",
    "prefecture": "島根県",
    "next_date": null,
    "start_time": null,
    "end_time": null,
    "recurrence": null,
    "building_name": null,
    "meeting_type": "通常",
    "official_url": "http://dansyukai.com"
  },
  {
    "id": 973,
    "facility_name": "益田市民学習センター",
    "address": "益田市元町１１−２６",
    "lat": 34.675091,
    "lng": 131.841278,
    "meeting_name": "例会",
    "schedule": "第1 月曜日 19:00～21:00",
    "contact_phone": "",
    "prefecture": "島根県",
    "next_date": null,
    "start_time": null,
    "end_time": null,
    "recurrence": null,
    "building_name": null,
    "meeting_type": "通常",
    "official_url": "http://dansyukai.com"
  },
  {
    "id": 974,
    "facility_name": "益田保健所",
    "address": "益田市昭和町１３−１",
    "lat": 34.678768,
    "lng": 131.850861,
    "meeting_name": "例会",
    "schedule": "第3 月曜日 19:00～21:00",
    "contact_phone": "",
    "prefecture": "島根県",
    "next_date": null,
    "start_time": null,
    "end_time": null,
    "recurrence": null,
    "building_name": null,
    "meeting_type": "通常",
    "official_url": "http://dansyukai.com"
  },
  {
    "id": 975,
    "facility_name": "津和野コミュニティセンター",
    "address": "鹿足郡津和野町後田ロ６６",
    "lat": 34.466717,
    "lng": 131.774155,
    "meeting_name": "例会",
    "schedule": "第2 水曜日 19:00～21:00",
    "contact_phone": "",
    "prefecture": "島根県",
    "next_date": null,
    "start_time": null,
    "end_time": null,
    "recurrence": null,
    "building_name": null,
    "meeting_type": "通常",
    "official_url": "http://dansyukai.com"
  },
  {
    "id": 976,
    "facility_name": "プラサ枕瀬",
    "address": "鹿足郡津和野町枕瀬４６４−２",
    "lat": 34.53397,
    "lng": 131.84816,
    "meeting_name": "例会",
    "schedule": "第3 水曜日 19:00～21:00",
    "contact_phone": "",
    "prefecture": "島根県",
    "next_date": null,
    "start_time": null,
    "end_time": null,
    "recurrence": null,
    "building_name": null,
    "meeting_type": "通常",
    "official_url": "http://dansyukai.com"
  },
  {
    "id": 977,
    "facility_name": "吉賀町保健センター（※注）",
    "address": "鹿足郡吉賀町六日市５８２−１",
    "lat": 34.355019,
    "lng": 131.935944,
    "meeting_name": "例会",
    "schedule": "第4 水曜日 19:00～21:00",
    "contact_phone": "",
    "prefecture": "島根県",
    "next_date": null,
    "start_time": null,
    "end_time": null,
    "recurrence": null,
    "building_name": null,
    "meeting_type": "通常",
    "official_url": "http://dansyukai.com"
  },
  {
    "id": 978,
    "facility_name": "隠岐ふれあいセンター",
    "address": "隠岐郡隠岐の島町城北町１",
    "lat": 36.208969,
    "lng": 133.321777,
    "meeting_name": "例会",
    "schedule": "第1 土曜日 13:00～15:00 第3 日曜日 13:00～15:00",
    "contact_phone": "",
    "prefecture": "島根県",
    "next_date": null,
    "start_time": null,
    "end_time": null,
    "recurrence": null,
    "building_name": null,
    "meeting_type": "通常",
    "official_url": "http://dansyukai.com"
  },
  {
    "id": 979,
    "facility_name": "役場五箇支所",
    "address": "隠岐郡隠岐の島町北方９０１−１",
    "lat": 36.272228,
    "lng": 133.196152,
    "meeting_name": "例会",
    "schedule": "第3 水曜日 13:30～15:30",
    "contact_phone": "",
    "prefecture": "島根県",
    "next_date": null,
    "start_time": null,
    "end_time": null,
    "recurrence": null,
    "building_name": null,
    "meeting_type": "通常",
    "official_url": "http://dansyukai.com"
  },
  {
    "id": 980,
    "facility_name": "都万中里集会所",
    "address": "隠岐郡海士町海士１４５３",
    "lat": 36.096966,
    "lng": 133.109116,
    "meeting_name": "例会",
    "schedule": "第4 水曜日 13:30～15:30",
    "contact_phone": "",
    "prefecture": "島根県",
    "next_date": null,
    "start_time": null,
    "end_time": null,
    "recurrence": null,
    "building_name": null,
    "meeting_type": "通常",
    "official_url": "http://dansyukai.com"
  },
  {
    "id": 981,
    "facility_name": "本部会館",
    "address": "松江市宍道町白石１４１２−１",
    "lat": 35.388882,
    "lng": 132.913315,
    "meeting_name": "宍道例会",
    "schedule": "第2 月曜日 19:00～21:00",
    "contact_phone": "",
    "prefecture": "島根県",
    "next_date": null,
    "start_time": null,
    "end_time": null,
    "recurrence": null,
    "building_name": null,
    "meeting_type": "通常",
    "official_url": "http://dansyukai.com"
  },
  {
    "id": 982,
    "facility_name": "新生園",
    "address": "松江市八束町波入４３−２",
    "lat": 35.492077,
    "lng": 133.174088,
    "meeting_name": "新生園　園内例会",
    "schedule": "第2･4 木曜日 19:00～20:30",
    "contact_phone": "",
    "prefecture": "島根県",
    "next_date": null,
    "start_time": null,
    "end_time": null,
    "recurrence": null,
    "building_name": null,
    "meeting_type": "通常",
    "official_url": "http://dansyukai.com"
  },
  {
    "id": 983,
    "facility_name": "日赤南５階病棟",
    "address": "松江市母衣町２００",
    "lat": 35.470592,
    "lng": 133.057068,
    "meeting_name": "松江赤十字病院院内例会",
    "schedule": "第4 木曜日 19:00～21:00",
    "contact_phone": "",
    "prefecture": "島根県",
    "next_date": null,
    "start_time": null,
    "end_time": null,
    "recurrence": null,
    "building_name": null,
    "meeting_type": "通常",
    "official_url": "http://dansyukai.com"
  },
  {
    "id": 984,
    "facility_name": "西川病院二階作業療法室",
    "address": "浜田市港町２９３−２",
    "lat": 34.904728,
    "lng": 132.0681,
    "meeting_name": "西川病院院内例会",
    "schedule": "第2･4 日曜日 13:30～15:00",
    "contact_phone": "",
    "prefecture": "島根県",
    "next_date": null,
    "start_time": null,
    "end_time": null,
    "recurrence": null,
    "building_name": null,
    "meeting_type": "通常",
    "official_url": "http://dansyukai.com"
  },
  {
    "id": 985,
    "facility_name": "きらめきプラザ",
    "address": "岡山県岡山市北区南方２丁目１３−１",
    "lat": 34.673317,
    "lng": 133.922684,
    "meeting_name": "家族会",
    "schedule": "第4 日曜日 13:00～15:00",
    "contact_phone": "",
    "prefecture": "岡山県",
    "next_date": null,
    "start_time": null,
    "end_time": null,
    "recurrence": null,
    "building_name": null,
    "meeting_type": "家族会",
    "official_url": "http://www2.bbweb-arena.com/ods/"
  },
  {
    "id": 986,
    "facility_name": "ももの里病院南館　会議室",
    "address": "岡山県笠岡市園井２２６３",
    "lat": 34.527878,
    "lng": 133.522797,
    "meeting_name": "ももの里病院　院内例会",
    "schedule": "毎週 土曜日 13:30～15:00",
    "contact_phone": "",
    "prefecture": "岡山県",
    "next_date": null,
    "start_time": null,
    "end_time": null,
    "recurrence": null,
    "building_name": null,
    "meeting_type": "通常",
    "official_url": "http://www2.bbweb-arena.com/ods/"
  },
  {
    "id": 987,
    "facility_name": "倉敷仁風ホスピタル６階",
    "address": "岡山県倉敷市中島２３４０",
    "lat": 34.590523,
    "lng": 133.742554,
    "meeting_name": "倉敷仁風ホスピタル　院内例会",
    "schedule": "第2･4 月曜日 13:30～15:00",
    "contact_phone": "",
    "prefecture": "岡山県",
    "next_date": null,
    "start_time": null,
    "end_time": null,
    "recurrence": null,
    "building_name": null,
    "meeting_type": "通常",
    "official_url": "http://www2.bbweb-arena.com/ods/"
  },
  {
    "id": 988,
    "facility_name": "岡山医療生協会館３階",
    "address": "岡山県岡山市中区赤坂本町2-20",
    "lat": 34.651127,
    "lng": 133.938248,
    "meeting_name": "協立病院　院内例会",
    "schedule": "第2 火曜日 18:30～20:00",
    "contact_phone": "",
    "prefecture": "岡山県",
    "next_date": null,
    "start_time": null,
    "end_time": null,
    "recurrence": null,
    "building_name": null,
    "meeting_type": "通常",
    "official_url": "http://www2.bbweb-arena.com/ods/"
  },
  {
    "id": 989,
    "facility_name": "県精神科医療センター　新館３Ｆリハ棟",
    "address": "岡山県岡山市北区鹿田本町３−１６",
    "lat": 34.650574,
    "lng": 133.916702,
    "meeting_name": "岡山県精神科医療センター　院内例会",
    "schedule": "毎週 木曜日 13:45～15:15",
    "contact_phone": "",
    "prefecture": "岡山県",
    "next_date": null,
    "start_time": null,
    "end_time": null,
    "recurrence": null,
    "building_name": null,
    "meeting_type": "通常",
    "official_url": "http://www2.bbweb-arena.com/ods/"
  },
  {
    "id": 990,
    "facility_name": "慈圭病院",
    "address": "岡山県岡山市南区浦安本町１００−２",
    "lat": 34.602863,
    "lng": 133.91774,
    "meeting_name": "慈圭病院　院内例会",
    "schedule": "毎週 金曜日 13:30～15:00",
    "contact_phone": "",
    "prefecture": "岡山県",
    "next_date": null,
    "start_time": null,
    "end_time": null,
    "recurrence": null,
    "building_name": null,
    "meeting_type": "通常",
    "official_url": "http://www2.bbweb-arena.com/ods/"
  },
  {
    "id": 991,
    "facility_name": "岡山市立岡西公民館",
    "address": "岡山県岡山市北区下伊福西町１−４８",
    "lat": 34.664471,
    "lng": 133.902267,
    "meeting_name": "日曜例会",
    "schedule": "第2 日曜日 14:00～16:00",
    "contact_phone": "",
    "prefecture": "岡山県",
    "next_date": null,
    "start_time": null,
    "end_time": null,
    "recurrence": null,
    "building_name": null,
    "meeting_type": "通常",
    "official_url": "http://www2.bbweb-arena.com/ods/"
  },
  {
    "id": 992,
    "facility_name": "岡山県生涯学習センター",
    "address": "岡山市北区伊島町３丁目１−１",
    "lat": 34.676624,
    "lng": 133.908127,
    "meeting_name": "本部例会",
    "schedule": "第1･3 土曜日 18:00～20:00",
    "contact_phone": "",
    "prefecture": "岡山県",
    "next_date": null,
    "start_time": null,
    "end_time": null,
    "recurrence": null,
    "building_name": null,
    "meeting_type": "通常",
    "official_url": "http://www2.bbweb-arena.com/ods/"
  },
  {
    "id": 993,
    "facility_name": "林病院　ひまわりホール",
    "address": "岡山県岡山市中区浜472",
    "lat": 34.672863,
    "lng": 133.942429,
    "meeting_name": "林病院　院内例会",
    "schedule": "毎週 水曜日 14:00～15:30",
    "contact_phone": "",
    "prefecture": "岡山県",
    "next_date": null,
    "start_time": null,
    "end_time": null,
    "recurrence": null,
    "building_name": null,
    "meeting_type": "通常",
    "official_url": "http://www2.bbweb-arena.com/ods/"
  },
  {
    "id": 994,
    "facility_name": "水島協同病院２階講堂",
    "address": "岡山県倉敷市水島南春日町１−１",
    "lat": 34.541317,
    "lng": 133.742737,
    "meeting_name": "水島協同病院　院内例会",
    "schedule": "第2･4 月曜日 18:00～19:30",
    "contact_phone": "",
    "prefecture": "岡山県",
    "next_date": null,
    "start_time": null,
    "end_time": null,
    "recurrence": null,
    "building_name": null,
    "meeting_type": "通常",
    "official_url": "http://www2.bbweb-arena.com/ods/"
  },
  {
    "id": 995,
    "facility_name": "河田病院内　ノブハウス喫茶室",
    "address": "岡山県岡山市北区富町２丁目１５−２１",
    "lat": 34.664154,
    "lng": 133.908264,
    "meeting_name": "河田病院　院内例会",
    "schedule": "第1･3 金曜日 18:30～20:00",
    "contact_phone": "",
    "prefecture": "岡山県",
    "next_date": null,
    "start_time": null,
    "end_time": null,
    "recurrence": null,
    "building_name": null,
    "meeting_type": "通常",
    "official_url": "http://www2.bbweb-arena.com/ods/"
  },
  {
    "id": 996,
    "facility_name": "禁酒会館",
    "address": "岡山県岡山市北区丸の内１丁目１−１５",
    "lat": 34.665092,
    "lng": 133.930573,
    "meeting_name": "特別（新人ブロック）例会",
    "schedule": "第4 土曜日 14:00～16:00",
    "contact_phone": "",
    "prefecture": "岡山県",
    "next_date": null,
    "start_time": null,
    "end_time": null,
    "recurrence": null,
    "building_name": null,
    "meeting_type": "通常",
    "official_url": "http://www2.bbweb-arena.com/ods/"
  },
  {
    "id": 997,
    "facility_name": "大元公民館",
    "address": "岡山市北区大元上町10-31",
    "lat": 34.648479,
    "lng": 133.900253,
    "meeting_name": "新人ミーティング",
    "schedule": "第4 火曜日 18:30～20:30",
    "contact_phone": "",
    "prefecture": "岡山県",
    "next_date": null,
    "start_time": null,
    "end_time": null,
    "recurrence": null,
    "building_name": null,
    "meeting_type": "通常",
    "official_url": "http://www.danshu.org"
  },
  {
    "id": 998,
    "facility_name": "井原市労働福祉会館",
    "address": "岡山県井原市七日市町９５２",
    "lat": 34.59182,
    "lng": 133.470398,
    "meeting_name": "例会",
    "schedule": "第1･5 水曜日 18:30～20:30",
    "contact_phone": "",
    "prefecture": "岡山県",
    "next_date": null,
    "start_time": null,
    "end_time": null,
    "recurrence": null,
    "building_name": null,
    "meeting_type": "通常",
    "official_url": "http://www2.bbweb-arena.com/ods/"
  },
  {
    "id": 999,
    "facility_name": "くらしき健康福祉プラザ２０１号",
    "address": "岡山県倉敷市笹沖１８０",
    "lat": 34.572376,
    "lng": 133.764206,
    "meeting_name": "ブロック例会",
    "schedule": "第5 木曜日 18:30～20:30",
    "contact_phone": "",
    "prefecture": "岡山県",
    "next_date": null,
    "start_time": null,
    "end_time": null,
    "recurrence": null,
    "building_name": null,
    "meeting_type": "通常",
    "official_url": "http://www2.bbweb-arena.com/ods/"
  },
  {
    "id": 1000,
    "facility_name": "倉敷市児島市民交流センター",
    "address": "岡山県倉敷市児島味野2丁目2番38号",
    "lat": 34.467892,
    "lng": 133.802719,
    "meeting_name": "児島会場",
    "schedule": "第4 水曜日 19:00～21:00 第3 木曜日 19:00～21:00",
    "contact_phone": "",
    "prefecture": "岡山県",
    "next_date": null,
    "start_time": null,
    "end_time": null,
    "recurrence": null,
    "building_name": null,
    "meeting_type": "通常",
    "official_url": "http://www2.bbweb-arena.com/ods/"
  },
  {
    "id": 1001,
    "facility_name": "和気町中央公民館２階",
    "address": "岡山県和気郡和気町尺所７−１",
    "lat": 34.802071,
    "lng": 134.159393,
    "meeting_name": "仲間のつどい",
    "schedule": "第2･4 火曜日 13:30～15:30",
    "contact_phone": "",
    "prefecture": "岡山県",
    "next_date": null,
    "start_time": null,
    "end_time": null,
    "recurrence": null,
    "building_name": null,
    "meeting_type": "通常",
    "official_url": "http://www2.bbweb-arena.com/ods/"
  },
  {
    "id": 1002,
    "facility_name": "備前市立吉永地域公民館",
    "address": "岡山県備前市吉永町三股１９",
    "lat": 34.817265,
    "lng": 134.204712,
    "meeting_name": "吉永会場",
    "schedule": "第2･4 金曜日 18:30～20:30",
    "contact_phone": "",
    "prefecture": "岡山県",
    "next_date": null,
    "start_time": null,
    "end_time": null,
    "recurrence": null,
    "building_name": null,
    "meeting_type": "通常",
    "official_url": "http://www2.bbweb-arena.com/ods/"
  },
  {
    "id": 1003,
    "facility_name": "備前市立香登地域公民館",
    "address": "岡山県備前市香登本７４５−１ 内",
    "lat": 34.730839,
    "lng": 134.120682,
    "meeting_name": "香登会場",
    "schedule": "第2･3･5 月曜日 19:00～21:00",
    "contact_phone": "",
    "prefecture": "岡山県",
    "next_date": null,
    "start_time": null,
    "end_time": null,
    "recurrence": null,
    "building_name": null,
    "meeting_type": "通常",
    "official_url": "http://www2.bbweb-arena.com/ods/"
  },
  {
    "id": 1004,
    "facility_name": "岡山市立芳田公民館",
    "address": "岡山県岡山市南区西市９６−１",
    "lat": 34.630947,
    "lng": 133.903503,
    "meeting_name": "ブロック例会",
    "schedule": "第3 月曜日 18:30～20:30",
    "contact_phone": "",
    "prefecture": "岡山県",
    "next_date": null,
    "start_time": null,
    "end_time": null,
    "recurrence": null,
    "building_name": null,
    "meeting_type": "通常",
    "official_url": "http://www2.bbweb-arena.com/ods/"
  },
  {
    "id": 1005,
    "facility_name": "岡山市立東公民館",
    "address": "岡山県岡山市中区高屋３４４−１",
    "lat": 34.67572,
    "lng": 133.964966,
    "meeting_name": "例会",
    "schedule": "第4 月曜日 18:30～20:30",
    "contact_phone": "",
    "prefecture": "岡山県",
    "next_date": null,
    "start_time": null,
    "end_time": null,
    "recurrence": null,
    "building_name": null,
    "meeting_type": "通常",
    "official_url": "http://www2.bbweb-arena.com/ods/"
  },
  {
    "id": 1006,
    "facility_name": "瀬戸内市長船町行幸老人憩いの家",
    "address": "岡山県瀬戸内市長船町服部156-1",
    "lat": 34.707394,
    "lng": 134.106857,
    "meeting_name": "瀬戸内会場",
    "schedule": "第3 水曜日 18:30～20:30",
    "contact_phone": "",
    "prefecture": "岡山県",
    "next_date": null,
    "start_time": null,
    "end_time": null,
    "recurrence": null,
    "building_name": null,
    "meeting_type": "通常",
    "official_url": "http://www2.bbweb-arena.com/ods/"
  },
  {
    "id": 1007,
    "facility_name": "岡山市立西大寺公民館３階",
    "address": "岡山県岡山市東区向州１−１",
    "lat": 34.655376,
    "lng": 134.040741,
    "meeting_name": "西大寺会場",
    "schedule": "第1 木曜日 18:30～20:30",
    "contact_phone": "",
    "prefecture": "岡山県",
    "next_date": null,
    "start_time": null,
    "end_time": null,
    "recurrence": null,
    "building_name": null,
    "meeting_type": "通常",
    "official_url": "http://www2.bbweb-arena.com/ods/"
  },
  {
    "id": 1008,
    "facility_name": "向陽台病院",
    "address": "真庭市上市瀬３６８",
    "lat": 35.028938,
    "lng": 133.744858,
    "meeting_name": "向陽台病院例会",
    "schedule": "第4 月曜日 13:00～15:00",
    "contact_phone": "",
    "prefecture": "岡山県",
    "next_date": null,
    "start_time": null,
    "end_time": null,
    "recurrence": null,
    "building_name": null,
    "meeting_type": "通常",
    "official_url": "meeting.html?mtg_id=1649&date=2026-05-01"
  },
  {
    "id": 1009,
    "facility_name": "希望ヶ丘ホスピタル",
    "address": "津山市田町１１５",
    "lat": 35.063705,
    "lng": 133.99556,
    "meeting_name": "家族会",
    "schedule": "第2･4 火曜日 10:00～12:00",
    "contact_phone": "",
    "prefecture": "岡山県",
    "next_date": null,
    "start_time": null,
    "end_time": null,
    "recurrence": null,
    "building_name": null,
    "meeting_type": "家族会",
    "official_url": "meeting.html?mtg_id=1652&date=2026-05-01"
  },
  {
    "id": 1010,
    "facility_name": "積善病院",
    "address": "津山市一方１４０",
    "lat": 35.055164,
    "lng": 133.979385,
    "meeting_name": "積善病院例会",
    "schedule": "第1･3 金曜日 13:00～15:00",
    "contact_phone": "",
    "prefecture": "岡山県",
    "next_date": null,
    "start_time": null,
    "end_time": null,
    "recurrence": null,
    "building_name": null,
    "meeting_type": "通常",
    "official_url": "meeting.html?mtg_id=1647&date=2026-05-01"
  },
  {
    "id": 1011,
    "facility_name": "岡山県精神科医療センター4F　サンクトホール",
    "address": "岡山市北区鹿田本町3-16",
    "lat": 34.650574,
    "lng": 133.916702,
    "meeting_name": "おかやまたけのこ会医療センター内例会",
    "schedule": "毎週 月曜日 13:45～15:15",
    "contact_phone": "",
    "prefecture": "岡山県",
    "next_date": null,
    "start_time": null,
    "end_time": null,
    "recurrence": null,
    "building_name": null,
    "meeting_type": "通常",
    "official_url": "http://www.danshu.org"
  },
  {
    "id": 1012,
    "facility_name": "総社市西公民館久代分館",
    "address": "総社市久代4482-1",
    "lat": 34.677139,
    "lng": 133.688385,
    "meeting_name": "依存症者の集い",
    "schedule": "第3 金曜日 18:30～20:30",
    "contact_phone": "",
    "prefecture": "岡山県",
    "next_date": null,
    "start_time": null,
    "end_time": null,
    "recurrence": null,
    "building_name": null,
    "meeting_type": "通常",
    "official_url": "http://www.danshu.org"
  },
  {
    "id": 1013,
    "facility_name": "くらしき健康福祉プラザ",
    "address": "倉敷市笹沖180番地",
    "lat": 34.572376,
    "lng": 133.764206,
    "meeting_name": "倉敷例会",
    "schedule": "第1･3 木曜日 18:30～20:30",
    "contact_phone": "",
    "prefecture": "岡山県",
    "next_date": null,
    "start_time": null,
    "end_time": null,
    "recurrence": null,
    "building_name": null,
    "meeting_type": "通常",
    "official_url": "http://www.danshu.org"
  },
  {
    "id": 1014,
    "facility_name": "岡山ふれあいセンター",
    "address": "岡山市中区桑野715-2",
    "lat": 34.617508,
    "lng": 133.979797,
    "meeting_name": "研修会",
    "schedule": "第3 日曜日 13:00～16:00",
    "contact_phone": "",
    "prefecture": "岡山県",
    "next_date": null,
    "start_time": null,
    "end_time": null,
    "recurrence": null,
    "building_name": null,
    "meeting_type": "通常",
    "official_url": "http://www.danshu.org"
  },
  {
    "id": 1015,
    "facility_name": "西大寺公民館",
    "address": "岡山市東区向州1-1",
    "lat": 34.655376,
    "lng": 134.040741,
    "meeting_name": "西大寺例会",
    "schedule": "第1 金曜日 18:30～20:30",
    "contact_phone": "",
    "prefecture": "岡山県",
    "next_date": null,
    "start_time": null,
    "end_time": null,
    "recurrence": null,
    "building_name": null,
    "meeting_type": "通常",
    "official_url": "http://www.danshu.org"
  },
  {
    "id": 1016,
    "facility_name": "浅口市健康福祉センター",
    "address": "浅口市鴨方町鴨方2244-26",
    "lat": 34.529724,
    "lng": 133.582352,
    "meeting_name": "鴨方例会",
    "schedule": "第4 水曜日 18:30～20:30",
    "contact_phone": "",
    "prefecture": "岡山県",
    "next_date": null,
    "start_time": null,
    "end_time": null,
    "recurrence": null,
    "building_name": null,
    "meeting_type": "通常",
    "official_url": "http://www.danshu.org"
  },
  {
    "id": 1017,
    "facility_name": "西苫田公民館",
    "address": "津山市小原６７−１",
    "lat": 35.077446,
    "lng": 134.000809,
    "meeting_name": "中央支部定例会",
    "schedule": "第1 水曜日 19:00～21:00",
    "contact_phone": "",
    "prefecture": "岡山県",
    "next_date": null,
    "start_time": null,
    "end_time": null,
    "recurrence": null,
    "building_name": null,
    "meeting_type": "通常",
    "official_url": "meeting.html?mtg_id=1644&date=2026-05-01"
  },
  {
    "id": 1018,
    "facility_name": "西大寺公民館",
    "address": "岡山市東区西大寺向州1-1",
    "lat": 34.662231,
    "lng": 134.041153,
    "meeting_name": "会場テーマミーティング",
    "schedule": "第4 金曜日 19:00～20:30",
    "contact_phone": "",
    "prefecture": "岡山県",
    "next_date": null,
    "start_time": null,
    "end_time": null,
    "recurrence": null,
    "building_name": null,
    "meeting_type": "通常",
    "official_url": "http://ww1.enjoy.ne.jp/~csco/csco2.htm"
  },
  {
    "id": 1019,
    "facility_name": "フリースペース 風曜日",
    "address": "真庭市久世２６１８",
    "lat": 35.077454,
    "lng": 133.747726,
    "meeting_name": "昼例会",
    "schedule": "第1 水曜日 13:00～15:00",
    "contact_phone": "",
    "prefecture": "岡山県",
    "next_date": null,
    "start_time": null,
    "end_time": null,
    "recurrence": null,
    "building_name": null,
    "meeting_type": "通常",
    "official_url": "meeting.html?mtg_id=1653&date=2026-05-01"
  },
  {
    "id": 1020,
    "facility_name": "津山市中央公民館",
    "address": "津山市大谷６００",
    "lat": 35.052509,
    "lng": 133.99324,
    "meeting_name": "本部定例会",
    "schedule": "第1･3 日曜日 18:00～20:00",
    "contact_phone": "",
    "prefecture": "岡山県",
    "next_date": null,
    "start_time": null,
    "end_time": null,
    "recurrence": null,
    "building_name": null,
    "meeting_type": "通常",
    "official_url": "meeting.html?mtg_id=1641&date=2026-05-01"
  },
  {
    "id": 1021,
    "facility_name": "断酒道場",
    "address": "津山市西中５９０",
    "lat": 35.109295,
    "lng": 134.106979,
    "meeting_name": "東部支部定例会",
    "schedule": "第2 土曜日 19:00～21:00",
    "contact_phone": "",
    "prefecture": "岡山県",
    "next_date": null,
    "start_time": null,
    "end_time": null,
    "recurrence": null,
    "building_name": null,
    "meeting_type": "通常",
    "official_url": "meeting.html?mtg_id=1645&date=2026-05-01"
  },
  {
    "id": 1022,
    "facility_name": "美作自修会",
    "address": "津山市山下４６",
    "lat": 35.062572,
    "lng": 134.001114,
    "meeting_name": "自修会例会",
    "schedule": "第4 木曜日 19:00～21:00",
    "contact_phone": "",
    "prefecture": "岡山県",
    "next_date": null,
    "start_time": null,
    "end_time": null,
    "recurrence": null,
    "building_name": null,
    "meeting_type": "通常",
    "official_url": "meeting.html?mtg_id=1650&date=2026-05-01"
  },
  {
    "id": 1023,
    "facility_name": "大野公民館",
    "address": "苫田郡鏡野町円宗寺１４３２−１",
    "lat": 35.106503,
    "lng": 133.940918,
    "meeting_name": "西部支部定例会",
    "schedule": "第4 土曜日 19:00～21:00",
    "contact_phone": "",
    "prefecture": "岡山県",
    "next_date": null,
    "start_time": null,
    "end_time": null,
    "recurrence": null,
    "building_name": null,
    "meeting_type": "通常",
    "official_url": "meeting.html?mtg_id=1643&date=2026-05-01"
  },
  {
    "id": 1024,
    "facility_name": "赤磐市立赤坂公民館",
    "address": "岡山県赤磐市町苅田５０７",
    "lat": 34.794682,
    "lng": 134.010452,
    "meeting_name": "ブロック例会",
    "schedule": "第3 火曜日 18:30～20:30",
    "contact_phone": "",
    "prefecture": "岡山県",
    "next_date": null,
    "start_time": null,
    "end_time": null,
    "recurrence": null,
    "building_name": null,
    "meeting_type": "通常",
    "official_url": "http://www2.bbweb-arena.com/ods/"
  },
  {
    "id": 1025,
    "facility_name": "岡山市立瀬戸公民館",
    "address": "岡山県岡山市東区瀬戸町瀬戸５４−１",
    "lat": 34.734203,
    "lng": 134.038589,
    "meeting_name": "瀬戸会場",
    "schedule": "第2 火曜日 18:30～20:30",
    "contact_phone": "",
    "prefecture": "岡山県",
    "next_date": null,
    "start_time": null,
    "end_time": null,
    "recurrence": null,
    "building_name": null,
    "meeting_type": "通常",
    "official_url": "http://www2.bbweb-arena.com/ods/"
  },
  {
    "id": 1026,
    "facility_name": "岡山市立御津公民館",
    "address": "岡山県岡山市北区御津宇垣１６２９",
    "lat": 34.782856,
    "lng": 133.924362,
    "meeting_name": "金川会場",
    "schedule": "第4 火曜日 18:30～20:30",
    "contact_phone": "",
    "prefecture": "岡山県",
    "next_date": null,
    "start_time": null,
    "end_time": null,
    "recurrence": null,
    "building_name": null,
    "meeting_type": "通常",
    "official_url": "http://www2.bbweb-arena.com/ods/"
  },
  {
    "id": 1027,
    "facility_name": "ほほえみ広場にいみ",
    "address": "岡山県新見市高尾２４８８−１３",
    "lat": 34.990742,
    "lng": 133.455673,
    "meeting_name": "例会",
    "schedule": "第1･3 火曜日 13:00～15:00",
    "contact_phone": "",
    "prefecture": "岡山県",
    "next_date": null,
    "start_time": null,
    "end_time": null,
    "recurrence": null,
    "building_name": null,
    "meeting_type": "通常",
    "official_url": "http://www2.bbweb-arena.com/ods/"
  },
  {
    "id": 1028,
    "facility_name": "岡山市立灘先公民館",
    "address": "岡山県岡山市南区片岡２０４",
    "lat": 34.543961,
    "lng": 133.865356,
    "meeting_name": "例会",
    "schedule": "第1･3 火曜日 18:30～20:30",
    "contact_phone": "",
    "prefecture": "岡山県",
    "next_date": null,
    "start_time": null,
    "end_time": null,
    "recurrence": null,
    "building_name": null,
    "meeting_type": "通常",
    "official_url": "http://www2.bbweb-arena.com/ods/"
  },
  {
    "id": 1029,
    "facility_name": "笠岡市保健センター",
    "address": "岡山県笠岡市十一番町１−３",
    "lat": 34.497292,
    "lng": 133.510117,
    "meeting_name": "例会",
    "schedule": "第2 水曜日 18:30～20:30",
    "contact_phone": "",
    "prefecture": "岡山県",
    "next_date": null,
    "start_time": null,
    "end_time": null,
    "recurrence": null,
    "building_name": null,
    "meeting_type": "通常",
    "official_url": "http://www2.bbweb-arena.com/ods/"
  },
  {
    "id": 1030,
    "facility_name": "総社市中央公民館",
    "address": "岡山県総社市中央三丁目1－102",
    "lat": 34.672863,
    "lng": 133.747833,
    "meeting_name": "例会",
    "schedule": "第2･4 金曜日 18:30～20:30",
    "contact_phone": "",
    "prefecture": "岡山県",
    "next_date": null,
    "start_time": null,
    "end_time": null,
    "recurrence": null,
    "building_name": null,
    "meeting_type": "通常",
    "official_url": "http://www2.bbweb-arena.com/ods/"
  },
  {
    "id": 1031,
    "facility_name": "浅口市健康福祉センターいきがいパレス研修室",
    "address": "岡山県浅口市鴨方町鴨方２２４４−２６",
    "lat": 34.529724,
    "lng": 133.582352,
    "meeting_name": "例会",
    "schedule": "第1･3 火曜日 19:00～21:00",
    "contact_phone": "",
    "prefecture": "岡山県",
    "next_date": null,
    "start_time": null,
    "end_time": null,
    "recurrence": null,
    "building_name": null,
    "meeting_type": "通常",
    "official_url": "http://www2.bbweb-arena.com/ods/"
  },
  {
    "id": 1032,
    "facility_name": "サン・シープラザ４階",
    "address": "三原市城町１丁目１８−１",
    "lat": 34.398827,
    "lng": 133.084213,
    "meeting_name": "お酒のお悩み相談＆昼例会",
    "schedule": "第1･3 月曜日 12:00～14:00 ９時から12時まで、お酒のお悩み相談",
    "contact_phone": "",
    "prefecture": "広島県",
    "next_date": null,
    "start_time": null,
    "end_time": null,
    "recurrence": null,
    "building_name": null,
    "meeting_type": "通常",
    "official_url": "https://mihara.webnode.jp"
  },
  {
    "id": 1033,
    "facility_name": "つばき会館",
    "address": "呉市中央6-2-9",
    "lat": 34.250263,
    "lng": 132.566605,
    "meeting_name": "例会",
    "schedule": "毎週 水曜日 18:30～20:30 第1･3･5 土曜日 18:30～20:30",
    "contact_phone": "",
    "prefecture": "広島県",
    "next_date": null,
    "start_time": null,
    "end_time": null,
    "recurrence": null,
    "building_name": null,
    "meeting_type": "通常",
    "official_url": "https://kuremidori-danshukai.com/"
  },
  {
    "id": 1034,
    "facility_name": "呉みどりヶ丘病院",
    "address": "呉市阿賀北1-15-45",
    "lat": 34.255123,
    "lng": 132.593063,
    "meeting_name": "例会",
    "schedule": "第2･4 土曜日 18:00～20:00",
    "contact_phone": "",
    "prefecture": "広島県",
    "next_date": null,
    "start_time": null,
    "end_time": null,
    "recurrence": null,
    "building_name": null,
    "meeting_type": "通常",
    "official_url": "https://kuremidori-danshukai.com/"
  },
  {
    "id": 1035,
    "facility_name": "勝山公民館",
    "address": "山口県下関市秋根南町２丁目４−３３",
    "lat": 34.008385,
    "lng": 130.953003,
    "meeting_name": "下関会場 例会",
    "schedule": "第2 火曜日 19:00～21:00",
    "contact_phone": "",
    "prefecture": "山口県",
    "next_date": null,
    "start_time": null,
    "end_time": null,
    "recurrence": null,
    "building_name": null,
    "meeting_type": "家族会",
    "official_url": "https://yamaguchiken-dansyu.info/"
  },
  {
    "id": 1036,
    "facility_name": "山口市しらさぎ会館",
    "address": "山口県山口市堂の前町１−５",
    "lat": 34.180832,
    "lng": 131.480591,
    "meeting_name": "アメシストの集い",
    "schedule": "第3 水曜日 13:00～15:00",
    "contact_phone": "",
    "prefecture": "山口県",
    "next_date": null,
    "start_time": null,
    "end_time": null,
    "recurrence": null,
    "building_name": null,
    "meeting_type": "女性(アメシスト)",
    "official_url": "https://yamaguchiken-dansyu.info/"
  },
  {
    "id": 1037,
    "facility_name": "光市総合福祉センター",
    "address": "山口県光市光井２丁目２−１",
    "lat": 33.952576,
    "lng": 131.953812,
    "meeting_name": "あいぱーく光 例会",
    "schedule": "第1･3 水曜日 19:00～21:00 電話：0833-74-3000",
    "contact_phone": "",
    "prefecture": "山口県",
    "next_date": null,
    "start_time": null,
    "end_time": null,
    "recurrence": null,
    "building_name": null,
    "meeting_type": "通常",
    "official_url": "https://yamaguchiken-dansyu.info/"
  },
  {
    "id": 1038,
    "facility_name": "コアプラザかの",
    "address": "山口県周南市鹿野上９１０",
    "lat": 34.253082,
    "lng": 131.853287,
    "meeting_name": "コアプラザかの 例会",
    "schedule": "第4 木曜日 19:00～20:30 電話：0834-68-0030",
    "contact_phone": "",
    "prefecture": "山口県",
    "next_date": null,
    "start_time": null,
    "end_time": null,
    "recurrence": null,
    "building_name": null,
    "meeting_type": "通常",
    "official_url": "https://yamaguchiken-dansyu.info/"
  },
  {
    "id": 1039,
    "facility_name": "サンワーク美祢",
    "address": "山口県美祢市大嶺町東分４１８−８",
    "lat": 34.170856,
    "lng": 131.208603,
    "meeting_name": "サンワーク美祢 例会",
    "schedule": "第4 月曜日 19:00～21:00",
    "contact_phone": "",
    "prefecture": "山口県",
    "next_date": null,
    "start_time": null,
    "end_time": null,
    "recurrence": null,
    "building_name": null,
    "meeting_type": "通常",
    "official_url": "https://yamaguchiken-dansyu.info/"
  },
  {
    "id": 1040,
    "facility_name": "ルルサス防府",
    "address": "山口県防府市栄町１丁目５−１",
    "lat": 34.053509,
    "lng": 131.57045,
    "meeting_name": "ルルサス防府 例会",
    "schedule": "第1･3･5 土曜日 19:00～21:00 第3土曜日の後半は家族会です。",
    "contact_phone": "",
    "prefecture": "山口県",
    "next_date": null,
    "start_time": null,
    "end_time": null,
    "recurrence": null,
    "building_name": null,
    "meeting_type": "通常",
    "official_url": "https://yamaguchiken-dansyu.info/"
  },
  {
    "id": 1041,
    "facility_name": "彦島公民館",
    "address": "山口県下関市彦島江の浦町１丁目３−１",
    "lat": 33.937149,
    "lng": 130.913803,
    "meeting_name": "下関会場 例会",
    "schedule": "第3･5 火曜日 19:00～21:00",
    "contact_phone": "",
    "prefecture": "山口県",
    "next_date": null,
    "start_time": null,
    "end_time": null,
    "recurrence": null,
    "building_name": null,
    "meeting_type": "通常",
    "official_url": "https://yamaguchiken-dansyu.info/"
  },
  {
    "id": 1042,
    "facility_name": "久賀総合センター",
    "address": "山口県大島郡周防大島町久賀５０５８",
    "lat": 33.937672,
    "lng": 132.266953,
    "meeting_name": "久賀総合センター 例会",
    "schedule": "第2 金曜日 19:00～21:00",
    "contact_phone": "",
    "prefecture": "山口県",
    "next_date": null,
    "start_time": null,
    "end_time": null,
    "recurrence": null,
    "building_name": null,
    "meeting_type": "通常",
    "official_url": "https://yamaguchiken-dansyu.info/"
  },
  {
    "id": 1043,
    "facility_name": "周南市学び・交流プラザ",
    "address": "山口県周南市中央町４−１０",
    "lat": 34.07093,
    "lng": 131.765198,
    "meeting_name": "周南市学び・交流プラザ 例会",
    "schedule": "第1･2･3 月曜日 19:00～21:00 第3月曜日　家族学習会",
    "contact_phone": "",
    "prefecture": "山口県",
    "next_date": null,
    "start_time": null,
    "end_time": null,
    "recurrence": null,
    "building_name": null,
    "meeting_type": "通常",
    "official_url": "https://yamaguchiken-dansyu.info/"
  },
  {
    "id": 1044,
    "facility_name": "徳山社会福祉センター",
    "address": "山口県周南市速玉町３−１７",
    "lat": 34.046288,
    "lng": 131.809448,
    "meeting_name": "周南支部 例会",
    "schedule": "",
    "contact_phone": "",
    "prefecture": "山口県",
    "next_date": null,
    "start_time": null,
    "end_time": null,
    "recurrence": null,
    "building_name": null,
    "meeting_type": "通常",
    "official_url": "https://yamaguchiken-dansyu.info/"
  },
  {
    "id": 1045,
    "facility_name": "大歳駅舎内",
    "address": "山口県山口市朝田 大歳駅",
    "lat": 34.149879,
    "lng": 131.417313,
    "meeting_name": "大歳駅舎内 例会",
    "schedule": "第1 水曜日 19:00～21:00 後半は家族会です。",
    "contact_phone": "",
    "prefecture": "山口県",
    "next_date": null,
    "start_time": null,
    "end_time": null,
    "recurrence": null,
    "building_name": null,
    "meeting_type": "通常",
    "official_url": "https://yamaguchiken-dansyu.info/"
  },
  {
    "id": 1046,
    "facility_name": "宇部市多世代ふれあいセンター",
    "address": "山口県宇部市琴芝町２丁目４−２５",
    "lat": 33.952831,
    "lng": 131.25267,
    "meeting_name": "宇部市多世代ふれあいセンター 例会",
    "schedule": "第4 木曜日 19:00～21:00",
    "contact_phone": "",
    "prefecture": "山口県",
    "next_date": null,
    "start_time": null,
    "end_time": null,
    "recurrence": null,
    "building_name": null,
    "meeting_type": "通常",
    "official_url": "https://yamaguchiken-dansyu.info/"
  },
  {
    "id": 1047,
    "facility_name": "宇部市総合福祉会館",
    "address": "山口県宇部市琴芝町２丁目４−２０",
    "lat": 33.952667,
    "lng": 131.253128,
    "meeting_name": "宇部支部 例会",
    "schedule": "第1･3 木曜日 19:00～21:00",
    "contact_phone": "",
    "prefecture": "山口県",
    "next_date": null,
    "start_time": null,
    "end_time": null,
    "recurrence": null,
    "building_name": null,
    "meeting_type": "通常",
    "official_url": "meeting.html?mtg_id=1503&date=2026-05-01"
  },
  {
    "id": 1048,
    "facility_name": "安岡コミュニティセンター（やすらガーデン）",
    "address": "山口県下関市富任町５丁目１０−１",
    "lat": 34.023552,
    "lng": 130.92392,
    "meeting_name": "安岡コミュニティセンター例会（やすらガーデン）",
    "schedule": "第3 木曜日 18:00～20:00 2階第4研修室",
    "contact_phone": "",
    "prefecture": "山口県",
    "next_date": null,
    "start_time": null,
    "end_time": null,
    "recurrence": null,
    "building_name": null,
    "meeting_type": "通常",
    "official_url": "https://yamaguchiken-dansyu.info/"
  },
  {
    "id": 1049,
    "facility_name": "室積コミュニティーセンター",
    "address": "山口県光市室積１丁目６−１",
    "lat": 33.931229,
    "lng": 131.972931,
    "meeting_name": "室積コミュニティーセンター 例会",
    "schedule": "第4 金曜日 19:00～21:00 電話：0833-78-0267",
    "contact_phone": "",
    "prefecture": "山口県",
    "next_date": null,
    "start_time": null,
    "end_time": null,
    "recurrence": null,
    "building_name": null,
    "meeting_type": "通常",
    "official_url": "https://yamaguchiken-dansyu.info/"
  },
  {
    "id": 1050,
    "facility_name": "防府市宮市福祉センター",
    "address": "山口県防府市本橋町１６−３",
    "lat": 34.066002,
    "lng": 131.566345,
    "meeting_name": "宮市福祉センター　例会",
    "schedule": "第2･4 土曜日 19:00～21:00",
    "contact_phone": "",
    "prefecture": "山口県",
    "next_date": null,
    "start_time": null,
    "end_time": null,
    "recurrence": null,
    "building_name": null,
    "meeting_type": "通常",
    "official_url": "https://yamaguchiken-dansyu.info/"
  },
  {
    "id": 1051,
    "facility_name": "小鯖地域交流センター",
    "address": "山口県山口市下小鯖２５１９",
    "lat": 34.130234,
    "lng": 131.523361,
    "meeting_name": "小鯖地域交流センター 例会",
    "schedule": "第3 水曜日 19:00～21:00",
    "contact_phone": "",
    "prefecture": "山口県",
    "next_date": null,
    "start_time": null,
    "end_time": null,
    "recurrence": null,
    "building_name": null,
    "meeting_type": "通常",
    "official_url": "https://yamaguchiken-dansyu.info/"
  },
  {
    "id": 1052,
    "facility_name": "ほのぼの会館",
    "address": "山口県周南市大神２丁目７−２４",
    "lat": 34.080971,
    "lng": 131.765335,
    "meeting_name": "新南陽支部 例会（2020年8月まで）",
    "schedule": "",
    "contact_phone": "",
    "prefecture": "山口県",
    "next_date": null,
    "start_time": null,
    "end_time": null,
    "recurrence": null,
    "building_name": null,
    "meeting_type": "通常",
    "official_url": "https://yamaguchiken-dansyu.info/"
  },
  {
    "id": 1053,
    "facility_name": "柳井市文化福祉会館",
    "address": "山口県柳井市柳井３７１８",
    "lat": 33.971172,
    "lng": 132.105743,
    "meeting_name": "柳井市文化福祉会館 例会",
    "schedule": "第1･2･3 火曜日 19:00～21:00",
    "contact_phone": "",
    "prefecture": "山口県",
    "next_date": null,
    "start_time": null,
    "end_time": null,
    "recurrence": null,
    "building_name": null,
    "meeting_type": "通常",
    "official_url": "https://yamaguchiken-dansyu.info/"
  },
  {
    "id": 1054,
    "facility_name": "浅江コミュニティセンター",
    "address": "山口県光市浅江３丁目１８−１１",
    "lat": 33.972511,
    "lng": 131.92395,
    "meeting_name": "浅江コミュニティセンター 例会",
    "schedule": "第2 土曜日 19:00～21:00 電話：0833-72-1438",
    "contact_phone": "",
    "prefecture": "山口県",
    "next_date": null,
    "start_time": null,
    "end_time": null,
    "recurrence": null,
    "building_name": null,
    "meeting_type": "通常",
    "official_url": "https://yamaguchiken-dansyu.info/"
  },
  {
    "id": 1055,
    "facility_name": "玖珂総合センター　奏（かなで）",
    "address": "山口県岩国市玖珂町新市４９３２−２",
    "lat": 34.092251,
    "lng": 132.079269,
    "meeting_name": "玖珂総合センター奏 例会",
    "schedule": "第1･3 金曜日 19:00～21:00 電話：0827-82-2511",
    "contact_phone": "",
    "prefecture": "山口県",
    "next_date": null,
    "start_time": null,
    "end_time": null,
    "recurrence": null,
    "building_name": null,
    "meeting_type": "通常",
    "official_url": "https://yamaguchiken-dansyu.info/"
  },
  {
    "id": 1056,
    "facility_name": "田万川コミュニティーセンター",
    "address": "山口県萩市江崎３３８",
    "lat": 34.645512,
    "lng": 131.634171,
    "meeting_name": "田万川コミュニティーセンター 例会",
    "schedule": "第2 月曜日 19:00～21:00",
    "contact_phone": "",
    "prefecture": "山口県",
    "next_date": null,
    "start_time": null,
    "end_time": null,
    "recurrence": null,
    "building_name": null,
    "meeting_type": "通常",
    "official_url": "https://yamaguchiken-dansyu.info/"
  },
  {
    "id": 1057,
    "facility_name": "萩市総合福祉センター",
    "address": "山口県萩市大字江向３５６−３",
    "lat": 34.408077,
    "lng": 131.398972,
    "meeting_name": "萩市総合福祉センター 例会",
    "schedule": "第2 木曜日 19:00～21:00 第4 土曜日 19:00～21:00",
    "contact_phone": "",
    "prefecture": "山口県",
    "next_date": null,
    "start_time": null,
    "end_time": null,
    "recurrence": null,
    "building_name": null,
    "meeting_type": "通常",
    "official_url": "https://yamaguchiken-dansyu.info/"
  },
  {
    "id": 1058,
    "facility_name": "長府東公民館",
    "address": "山口県下関市長府松小田本町４−１５",
    "lat": 34.018974,
    "lng": 131.000168,
    "meeting_name": "長府東公民館 例会",
    "schedule": "第4 水曜日 19:00～21:00",
    "contact_phone": "",
    "prefecture": "山口県",
    "next_date": null,
    "start_time": null,
    "end_time": null,
    "recurrence": null,
    "building_name": null,
    "meeting_type": "通常",
    "official_url": "https://yamaguchiken-dansyu.info/"
  },
  {
    "id": 1059,
    "facility_name": "長門市中央公民館",
    "address": "山口県長門市東深川１３２６−６",
    "lat": 34.372307,
    "lng": 131.181137,
    "meeting_name": "長門市中央公民館 例会",
    "schedule": "第1･3 月曜日 19:00～21:00",
    "contact_phone": "",
    "prefecture": "山口県",
    "next_date": null,
    "start_time": null,
    "end_time": null,
    "recurrence": null,
    "building_name": null,
    "meeting_type": "通常",
    "official_url": "https://yamaguchiken-dansyu.info/"
  },
  {
    "id": 1060,
    "facility_name": "阿東地域交流センター",
    "address": "山口県山口市阿東徳佐中３４２５−１",
    "lat": 34.405739,
    "lng": 131.719284,
    "meeting_name": "阿東地域交流センター 例会",
    "schedule": "第4 木曜日 19:00～21:00",
    "contact_phone": "",
    "prefecture": "山口県",
    "next_date": null,
    "start_time": null,
    "end_time": null,
    "recurrence": null,
    "building_name": null,
    "meeting_type": "通常",
    "official_url": "https://yamaguchiken-dansyu.info/"
  },
  {
    "id": 1061,
    "facility_name": "高千帆福祉会館",
    "address": "山口県山陽小野田市日の出３丁目１１−１１",
    "lat": 34.007473,
    "lng": 131.182983,
    "meeting_name": "高千帆福祉会館 例会",
    "schedule": "第2･4 木曜日 19:00～21:00",
    "contact_phone": "",
    "prefecture": "山口県",
    "next_date": null,
    "start_time": null,
    "end_time": null,
    "recurrence": null,
    "building_name": null,
    "meeting_type": "通常",
    "official_url": "https://yamaguchiken-dansyu.info/"
  },
  {
    "id": 1062,
    "facility_name": "那賀町相生保健センター",
    "address": "徳島県那賀郡那賀町大久保大西3-2",
    "lat": 33.802193,
    "lng": 134.450287,
    "meeting_name": "丹生谷例会",
    "schedule": "第1 火曜日 14:00～16:00",
    "contact_phone": "",
    "prefecture": "徳島県",
    "next_date": null,
    "start_time": null,
    "end_time": null,
    "recurrence": null,
    "building_name": null,
    "meeting_type": "通常",
    "official_url": "http://tokushimaken-dansyukai.or.jp"
  },
  {
    "id": 1063,
    "facility_name": "徳島県精神保健福祉センター",
    "address": "徳島県徳島市新蔵町3丁目80",
    "lat": 34.07,
    "lng": 134.560898,
    "meeting_name": "例会",
    "schedule": "第1 月曜日 18:00～20:00 【休会のお知らせ】　5月4日（月）の本部例会は休会となりました。",
    "contact_phone": "",
    "prefecture": "徳島県",
    "next_date": null,
    "start_time": null,
    "end_time": null,
    "recurrence": null,
    "building_name": null,
    "meeting_type": "通常",
    "official_url": "http://tokushimaken-dansyukai.or.jp"
  },
  {
    "id": 1064,
    "facility_name": "鳴門市健康福祉交流センター",
    "address": "徳島県鳴門市撫養町南浜字東浜24-2",
    "lat": 34.170025,
    "lng": 134.608978,
    "meeting_name": "例会",
    "schedule": "第1･3 木曜日 18:00～20:00",
    "contact_phone": "",
    "prefecture": "徳島県",
    "next_date": null,
    "start_time": null,
    "end_time": null,
    "recurrence": null,
    "building_name": null,
    "meeting_type": "通常",
    "official_url": "http://tokushimaken-dansyukai.or.jp"
  },
  {
    "id": 1065,
    "facility_name": "小松島市ふれあいセンター立江",
    "address": "徳島県小松島市立江町黒岩78",
    "lat": 33.975643,
    "lng": 134.60498,
    "meeting_name": "例会",
    "schedule": "第4 木曜日 18:00～20:00",
    "contact_phone": "",
    "prefecture": "徳島県",
    "next_date": null,
    "start_time": null,
    "end_time": null,
    "recurrence": null,
    "building_name": null,
    "meeting_type": "通常",
    "official_url": "http://tokushimaken-dansyukai.or.jp"
  },
  {
    "id": 1066,
    "facility_name": "阿南ひまわり会館",
    "address": "徳島県阿南市富岡町北通33-1",
    "lat": 33.92136,
    "lng": 134.662415,
    "meeting_name": "例会",
    "schedule": "第2･4 金曜日 18:00～20:00",
    "contact_phone": "",
    "prefecture": "徳島県",
    "next_date": null,
    "start_time": null,
    "end_time": null,
    "recurrence": null,
    "building_name": null,
    "meeting_type": "通常",
    "official_url": "http://tokushimaken-dansyukai.or.jp"
  },
  {
    "id": 1067,
    "facility_name": "吉野川保健所",
    "address": "徳島県吉野川市鴨島町鴨島106-2",
    "lat": 34.06741,
    "lng": 134.358749,
    "meeting_name": "例会",
    "schedule": "第2･4 火曜日 18:00～20:00",
    "contact_phone": "",
    "prefecture": "徳島県",
    "next_date": null,
    "start_time": null,
    "end_time": null,
    "recurrence": null,
    "building_name": null,
    "meeting_type": "通常",
    "official_url": "http://tokushimaken-dansyukai.or.jp"
  },
  {
    "id": 1068,
    "facility_name": "美馬保健所",
    "address": "徳島県美馬市穴吹町穴吹字明連23",
    "lat": 34.039307,
    "lng": 134.180634,
    "meeting_name": "例会",
    "schedule": "第1 金曜日 18:00～20:00",
    "contact_phone": "",
    "prefecture": "徳島県",
    "next_date": null,
    "start_time": null,
    "end_time": null,
    "recurrence": null,
    "building_name": null,
    "meeting_type": "通常",
    "official_url": "http://tokushimaken-dansyukai.or.jp"
  },
  {
    "id": 1069,
    "facility_name": "三好保健所",
    "address": "徳島県三好市池田町字マチ2542-4",
    "lat": 34.02858,
    "lng": 133.801773,
    "meeting_name": "例会",
    "schedule": "第2･4 木曜日 18:00～20:00",
    "contact_phone": "",
    "prefecture": "徳島県",
    "next_date": null,
    "start_time": null,
    "end_time": null,
    "recurrence": null,
    "building_name": null,
    "meeting_type": "通常",
    "official_url": "http://tokushimaken-dansyukai.or.jp"
  },
  {
    "id": 1070,
    "facility_name": "八万コミニティセンター",
    "address": "徳島県徳島市八万町法花187-1",
    "lat": 34.038708,
    "lng": 134.538498,
    "meeting_name": "八万例会",
    "schedule": "第3 火曜日 19:00～21:00",
    "contact_phone": "",
    "prefecture": "徳島県",
    "next_date": null,
    "start_time": null,
    "end_time": null,
    "recurrence": null,
    "building_name": null,
    "meeting_type": "通常",
    "official_url": "http://tokushimaken-dansyukai.or.jp"
  },
  {
    "id": 1071,
    "facility_name": "徳島市農村環境改善センター",
    "address": "徳島県徳島市国府町井戸高池窪",
    "lat": 34.087418,
    "lng": 134.486557,
    "meeting_name": "国府例会",
    "schedule": "第3 土曜日 18:30～20:30",
    "contact_phone": "",
    "prefecture": "徳島県",
    "next_date": null,
    "start_time": null,
    "end_time": null,
    "recurrence": null,
    "building_name": null,
    "meeting_type": "通常",
    "official_url": "http://tokushimaken-dansyukai.or.jp"
  },
  {
    "id": 1072,
    "facility_name": "美波町日和佐公民館",
    "address": "徳島県海部郡美波町奥河内字寺前153-1",
    "lat": 33.731441,
    "lng": 134.532364,
    "meeting_name": "日和佐例会",
    "schedule": "第3 金曜日 18:00～20:00 【休会のお知らせ】5月15日（金）の日和佐例会は休会となりました。",
    "contact_phone": "",
    "prefecture": "徳島県",
    "next_date": null,
    "start_time": null,
    "end_time": null,
    "recurrence": null,
    "building_name": null,
    "meeting_type": "通常",
    "official_url": "http://tokushimaken-dansyukai.or.jp"
  },
  {
    "id": 1073,
    "facility_name": "海陽町宍喰町民センター",
    "address": "海部郡海陽町宍喰浦字宍喰354-1",
    "lat": 33.566509,
    "lng": 134.305969,
    "meeting_name": "海陽例会",
    "schedule": "第4 月曜日 18:30～20:30",
    "contact_phone": "",
    "prefecture": "徳島県",
    "next_date": null,
    "start_time": null,
    "end_time": null,
    "recurrence": null,
    "building_name": null,
    "meeting_type": "通常",
    "official_url": "http://tokushimaken-dansyukai.or.jp"
  },
  {
    "id": 1074,
    "facility_name": "牟岐町高齢者コミュニティセンター浜の家",
    "address": "徳島県海部郡牟岐町大字牟岐浦字浜崎214-1",
    "lat": 33.665882,
    "lng": 134.416519,
    "meeting_name": "牟岐例会",
    "schedule": "第1 土曜日 18:00～20:00 【休会のお知らせ】　5月2日（土）の例会は休会となりました。",
    "contact_phone": "",
    "prefecture": "徳島県",
    "next_date": null,
    "start_time": null,
    "end_time": null,
    "recurrence": null,
    "building_name": null,
    "meeting_type": "通常",
    "official_url": "http://tokushimaken-dansyukai.or.jp"
  },
  {
    "id": 1075,
    "facility_name": "美馬文化会館",
    "address": "徳島県美馬市美馬町字養泉11",
    "lat": 34.077938,
    "lng": 134.039108,
    "meeting_name": "美馬例会",
    "schedule": "第1 火曜日 19:00～21:00",
    "contact_phone": "",
    "prefecture": "徳島県",
    "next_date": null,
    "start_time": null,
    "end_time": null,
    "recurrence": null,
    "building_name": null,
    "meeting_type": "通常",
    "official_url": "http://tokushimaken-dansyukai.or.jp"
  },
  {
    "id": 1076,
    "facility_name": "阿南市羽ノ浦公民館",
    "address": "徳島県阿南市羽ノ浦町宮倉大木38-4",
    "lat": 33.95369,
    "lng": 134.62149,
    "meeting_name": "羽ノ浦例会",
    "schedule": "第2 水曜日 18:30～20:30 【お知らせ】5月13日（水）例会は休会となりました。",
    "contact_phone": "",
    "prefecture": "徳島県",
    "next_date": null,
    "start_time": null,
    "end_time": null,
    "recurrence": null,
    "building_name": null,
    "meeting_type": "通常",
    "official_url": "http://tokushimaken-dansyukai.or.jp"
  },
  {
    "id": 1077,
    "facility_name": "美馬市地域交流センターミライズ",
    "address": "徳島県美馬市脇町大字猪尻字西分116－1",
    "lat": 34.066597,
    "lng": 134.149841,
    "meeting_name": "脇町例会",
    "schedule": "第3 金曜日 19:00～21:00",
    "contact_phone": "",
    "prefecture": "徳島県",
    "next_date": null,
    "start_time": null,
    "end_time": null,
    "recurrence": null,
    "building_name": null,
    "meeting_type": "通常",
    "official_url": "http://tokushimaken-dansyukai.or.jp"
  },
  {
    "id": 1078,
    "facility_name": "徳命老人憩の家",
    "address": "板野郡藍住町徳命前須東９７−１",
    "lat": 34.115173,
    "lng": 134.48555,
    "meeting_name": "藍住例会",
    "schedule": "第4 月曜日 18:00～20:00",
    "contact_phone": "",
    "prefecture": "徳島県",
    "next_date": null,
    "start_time": null,
    "end_time": null,
    "recurrence": null,
    "building_name": null,
    "meeting_type": "通常",
    "official_url": "http://tokushimaken-dansyukai.or.jp"
  },
  {
    "id": 1079,
    "facility_name": "徳島市ふれあい健康館",
    "address": "徳島市沖浜東２丁目１６",
    "lat": 34.052151,
    "lng": 134.554443,
    "meeting_name": "例会",
    "schedule": "第3 月曜日 18:00～20:00",
    "contact_phone": "",
    "prefecture": "徳島県",
    "next_date": null,
    "start_time": null,
    "end_time": null,
    "recurrence": null,
    "building_name": null,
    "meeting_type": "通常",
    "official_url": "http://tokushimaken-dansyukai.or.jp"
  },
  {
    "id": 1080,
    "facility_name": "藍里病院",
    "address": "徳島県板野郡上板町佐藤塚東288-3",
    "lat": 34.110798,
    "lng": 134.445435,
    "meeting_name": "藍里院内例会",
    "schedule": "第2･4 日曜日 13:30～15:30",
    "contact_phone": "",
    "prefecture": "徳島県",
    "next_date": null,
    "start_time": null,
    "end_time": null,
    "recurrence": null,
    "building_name": null,
    "meeting_type": "通常",
    "official_url": "http://tokushimaken-dansyukai.or.jp"
  },
  {
    "id": 1081,
    "facility_name": "とくしま県民活動プラザ(沖洲マリンターミナル1階)",
    "address": "徳島県徳島市東沖洲2丁目14番地",
    "lat": 34.059322,
    "lng": 134.603622,
    "meeting_name": "家族会",
    "schedule": "第3 日曜日 10:00～12:00",
    "contact_phone": "",
    "prefecture": "徳島県",
    "next_date": null,
    "start_time": null,
    "end_time": null,
    "recurrence": null,
    "building_name": null,
    "meeting_type": "家族会",
    "official_url": "http://tokushimaken-dansyukai.or.jp"
  },
  {
    "id": 1082,
    "facility_name": "大町コミュニティーセンター",
    "address": "香川県高松市牟礼町大町1463-2",
    "lat": 34.334812,
    "lng": 134.145325,
    "meeting_name": "ミーティング",
    "schedule": "第1 金曜日 14:00～15:30 オープン 第3 木曜日 15:10～16:10 オープン 16:15〜16:50　フェローシップタイム",
    "contact_phone": "",
    "prefecture": "香川県",
    "next_date": null,
    "start_time": null,
    "end_time": null,
    "recurrence": null,
    "building_name": null,
    "meeting_type": "通常",
    "official_url": "https://aajapan.org/"
  },
  {
    "id": 1083,
    "facility_name": "まんのう町四条公民館",
    "address": "香川県仲多度郡まんのう町吉野下２８１",
    "lat": 34.194817,
    "lng": 133.839294,
    "meeting_name": "まんのう例会",
    "schedule": "第1 火曜日 18:00～20:00",
    "contact_phone": "",
    "prefecture": "香川県",
    "next_date": null,
    "start_time": null,
    "end_time": null,
    "recurrence": null,
    "building_name": null,
    "meeting_type": "通常",
    "official_url": "https://kagawa-dansyu.com"
  },
  {
    "id": 1084,
    "facility_name": "三光病院断酒会場",
    "address": "香川県高松市牟礼町原883-1",
    "lat": 34.331623,
    "lng": 134.151581,
    "meeting_name": "三光例会",
    "schedule": "第1･3 土曜日 14:00～16:00",
    "contact_phone": "",
    "prefecture": "香川県",
    "next_date": null,
    "start_time": null,
    "end_time": null,
    "recurrence": null,
    "building_name": null,
    "meeting_type": "女性(アメシスト)",
    "official_url": "https://kagawa-dansyu.com"
  },
  {
    "id": 1085,
    "facility_name": "三木町防災センター",
    "address": "香川県木田郡三木町氷上３１０",
    "lat": 34.268349,
    "lng": 134.135086,
    "meeting_name": "三木例会",
    "schedule": "",
    "contact_phone": "",
    "prefecture": "香川県",
    "next_date": null,
    "start_time": null,
    "end_time": null,
    "recurrence": null,
    "building_name": null,
    "meeting_type": "通常",
    "official_url": "https://kagawa-dansyu.com"
  },
  {
    "id": 1086,
    "facility_name": "三船病院",
    "address": "香川県丸亀市柞原町366",
    "lat": 34.26701,
    "lng": 133.804047,
    "meeting_name": "三船例会",
    "schedule": "第4 土曜日 14:00～16:00",
    "contact_phone": "",
    "prefecture": "香川県",
    "next_date": null,
    "start_time": null,
    "end_time": null,
    "recurrence": null,
    "building_name": null,
    "meeting_type": "通常",
    "official_url": "https://kagawa-dansyu.com"
  },
  {
    "id": 1087,
    "facility_name": "三豊総合病院",
    "address": "香川県観音寺市豊浜町姫浜708",
    "lat": 34.081947,
    "lng": 133.642014,
    "meeting_name": "三豊例会",
    "schedule": "第1 木曜日 18:00～20:00",
    "contact_phone": "",
    "prefecture": "香川県",
    "next_date": null,
    "start_time": null,
    "end_time": null,
    "recurrence": null,
    "building_name": null,
    "meeting_type": "通常",
    "official_url": "https://kagawa-dansyu.com"
  },
  {
    "id": 1088,
    "facility_name": "中讃地域生活支援センター",
    "address": "香川県坂出市加茂町700-13",
    "lat": 34.309395,
    "lng": 133.912048,
    "meeting_name": "中讃例会",
    "schedule": "第1 土曜日 13:30～15:30",
    "contact_phone": "",
    "prefecture": "香川県",
    "next_date": null,
    "start_time": null,
    "end_time": null,
    "recurrence": null,
    "building_name": null,
    "meeting_type": "通常",
    "official_url": "https://kagawa-dansyu.com"
  },
  {
    "id": 1089,
    "facility_name": "ひまわりセンター",
    "address": "香川県丸亀市大手町2-1-7",
    "lat": 34.288258,
    "lng": 133.799805,
    "meeting_name": "丸亀例会",
    "schedule": "第3 木曜日 18:00～20:00",
    "contact_phone": "",
    "prefecture": "香川県",
    "next_date": null,
    "start_time": null,
    "end_time": null,
    "recurrence": null,
    "building_name": null,
    "meeting_type": "通常",
    "official_url": "https://kagawa-dansyu.com"
  },
  {
    "id": 1090,
    "facility_name": "香川県立丸亀病院",
    "address": "香川県丸亀市土器町東9丁目291",
    "lat": 34.300995,
    "lng": 133.808365,
    "meeting_name": "丸亀病院例会",
    "schedule": "第3 日曜日 13:30～15:30",
    "contact_phone": "",
    "prefecture": "香川県",
    "next_date": null,
    "start_time": null,
    "end_time": null,
    "recurrence": null,
    "building_name": null,
    "meeting_type": "通常",
    "official_url": "https://kagawa-dansyu.com"
  },
  {
    "id": 1091,
    "facility_name": "山本町生涯学習センター",
    "address": "香川県三豊市山本町財田西154",
    "lat": 34.116432,
    "lng": 133.736526,
    "meeting_name": "例会",
    "schedule": "第3 水曜日 18:00～20:00",
    "contact_phone": "",
    "prefecture": "香川県",
    "next_date": null,
    "start_time": null,
    "end_time": null,
    "recurrence": null,
    "building_name": null,
    "meeting_type": "通常",
    "official_url": "https://kagawa-dansyu.com"
  },
  {
    "id": 1092,
    "facility_name": "古高松南コミュニティセンター",
    "address": "香川県高松市春日町782-2",
    "lat": 34.326534,
    "lng": 134.091537,
    "meeting_name": "古高松例会",
    "schedule": "第3 金曜日 18:00～20:00",
    "contact_phone": "",
    "prefecture": "香川県",
    "next_date": null,
    "start_time": null,
    "end_time": null,
    "recurrence": null,
    "building_name": null,
    "meeting_type": "通常",
    "official_url": "https://kagawa-dansyu.com"
  },
  {
    "id": 1093,
    "facility_name": "善通寺市総合会館",
    "address": "香川県善通寺市文京町２丁目１−４",
    "lat": 34.226688,
    "lng": 133.788513,
    "meeting_name": "善通寺例会",
    "schedule": "第3 土曜日 18:00～20:00",
    "contact_phone": "",
    "prefecture": "香川県",
    "next_date": null,
    "start_time": null,
    "end_time": null,
    "recurrence": null,
    "building_name": null,
    "meeting_type": "通常",
    "official_url": "https://kagawa-dansyu.com"
  },
  {
    "id": 1094,
    "facility_name": "坂出市勤労福祉センター",
    "address": "香川県坂出市寿町１丁目３−５",
    "lat": 34.313591,
    "lng": 133.849915,
    "meeting_name": "坂出例会",
    "schedule": "第2･4 木曜日 18:00～20:00",
    "contact_phone": "",
    "prefecture": "香川県",
    "next_date": null,
    "start_time": null,
    "end_time": null,
    "recurrence": null,
    "building_name": null,
    "meeting_type": "通常",
    "official_url": "https://kagawa-dansyu.com"
  },
  {
    "id": 1095,
    "facility_name": "志度公民館",
    "address": "香川県さぬき市志度３７８５−１０",
    "lat": 34.311432,
    "lng": 134.174911,
    "meeting_name": "志度例会",
    "schedule": "第4 金曜日 18:00～20:00",
    "contact_phone": "",
    "prefecture": "香川県",
    "next_date": null,
    "start_time": null,
    "end_time": null,
    "recurrence": null,
    "building_name": null,
    "meeting_type": "通常",
    "official_url": "https://kagawa-dansyu.com"
  },
  {
    "id": 1096,
    "facility_name": "香川県高松合同庁舎",
    "address": "香川県高松市松島町1ー17-28",
    "lat": 34.339134,
    "lng": 134.05864,
    "meeting_name": "本部例会",
    "schedule": "第1 金曜日 18:30～20:30",
    "contact_phone": "",
    "prefecture": "香川県",
    "next_date": null,
    "start_time": null,
    "end_time": null,
    "recurrence": null,
    "building_name": null,
    "meeting_type": "通常",
    "official_url": "https://kagawa-dansyu.com"
  },
  {
    "id": 1097,
    "facility_name": "津田保健センター",
    "address": "香川県さぬき市津田町津田915-1",
    "lat": 34.288101,
    "lng": 134.248291,
    "meeting_name": "津田例会",
    "schedule": "第2 金曜日 18:00～20:00",
    "contact_phone": "",
    "prefecture": "香川県",
    "next_date": null,
    "start_time": null,
    "end_time": null,
    "recurrence": null,
    "building_name": null,
    "meeting_type": "通常",
    "official_url": "https://kagawa-dansyu.com"
  },
  {
    "id": 1098,
    "facility_name": "土庄町渕崎公民館",
    "address": "香川県小豆郡土庄町淵崎甲１４００−１０",
    "lat": 34.486176,
    "lng": 134.188675,
    "meeting_name": "淵崎例会",
    "schedule": "第3 土曜日 13:00～15:00",
    "contact_phone": "",
    "prefecture": "香川県",
    "next_date": null,
    "start_time": null,
    "end_time": null,
    "recurrence": null,
    "building_name": null,
    "meeting_type": "通常",
    "official_url": "https://kagawa-dansyu.com"
  },
  {
    "id": 1099,
    "facility_name": "清水病院",
    "address": "香川県観音寺市柞田町甲1425-1",
    "lat": 34.113583,
    "lng": 133.662186,
    "meeting_name": "清水例会",
    "schedule": "第2 火曜日 18:00～20:00",
    "contact_phone": "",
    "prefecture": "香川県",
    "next_date": null,
    "start_time": null,
    "end_time": null,
    "recurrence": null,
    "building_name": null,
    "meeting_type": "通常",
    "official_url": "https://kagawa-dansyu.com"
  },
  {
    "id": 1100,
    "facility_name": "観音寺中央公民館",
    "address": "香川県観音寺市坂本町1-1-1",
    "lat": 34.127544,
    "lng": 133.66098,
    "meeting_name": "観音寺例会",
    "schedule": "第4 火曜日 18:00～20:00",
    "contact_phone": "",
    "prefecture": "香川県",
    "next_date": null,
    "start_time": null,
    "end_time": null,
    "recurrence": null,
    "building_name": null,
    "meeting_type": "通常",
    "official_url": "https://kagawa-dansyu.com"
  },
  {
    "id": 1101,
    "facility_name": "香南コミュニティセンター",
    "address": "香川県高松市香南町由佐1172",
    "lat": 34.240089,
    "lng": 134.012985,
    "meeting_name": "香南例会",
    "schedule": "第3 火曜日 18:00～20:00",
    "contact_phone": "",
    "prefecture": "香川県",
    "next_date": null,
    "start_time": null,
    "end_time": null,
    "recurrence": null,
    "building_name": null,
    "meeting_type": "通常",
    "official_url": "https://kagawa-dansyu.com"
  },
  {
    "id": 1102,
    "facility_name": "多度津町中央公民館 本通分館",
    "address": "仲多度郡多度津町本通１丁目８−４",
    "lat": 34.270767,
    "lng": 133.749069,
    "meeting_name": "例会",
    "schedule": "毎週 火曜日 18:30～20:30",
    "contact_phone": "",
    "prefecture": "香川県",
    "next_date": null,
    "start_time": null,
    "end_time": null,
    "recurrence": null,
    "building_name": null,
    "meeting_type": "通常",
    "official_url": "meeting.html?mtg_id=1466&date=2026-05-01"
  },
  {
    "id": 1103,
    "facility_name": "志度南交流センター",
    "address": "さぬき市志度４６２６−４２",
    "lat": 34.306141,
    "lng": 134.182861,
    "meeting_name": "例会",
    "schedule": "第4 土曜日 14:00～16:00",
    "contact_phone": "",
    "prefecture": "香川県",
    "next_date": null,
    "start_time": null,
    "end_time": null,
    "recurrence": null,
    "building_name": null,
    "meeting_type": "通常",
    "official_url": "meeting.html?mtg_id=1467&date=2026-05-01"
  },
  {
    "id": 1104,
    "facility_name": "高松市保健センター",
    "address": "香川県高松市桜町1-9-12",
    "lat": 34.330372,
    "lng": 134.0522,
    "meeting_name": "アルコール問題を考える家族のつどい",
    "schedule": "第3 水曜日 13:30～14:30",
    "contact_phone": "",
    "prefecture": "香川県",
    "next_date": null,
    "start_time": null,
    "end_time": null,
    "recurrence": null,
    "building_name": null,
    "meeting_type": "家族会",
    "official_url": "https://kagawa-dansyu.com"
  },
  {
    "id": 1105,
    "facility_name": "イマージュセンター",
    "address": "香川県小豆郡小豆島町池田2124",
    "lat": 34.486359,
    "lng": 134.245407,
    "meeting_name": "例会",
    "schedule": "第1 水曜日 19:00～21:00",
    "contact_phone": "",
    "prefecture": "香川県",
    "next_date": null,
    "start_time": null,
    "end_time": null,
    "recurrence": null,
    "building_name": null,
    "meeting_type": "通常",
    "official_url": "https://kagawa-dansyu.com"
  },
  {
    "id": 1106,
    "facility_name": "内海保健センター",
    "address": "香川県小豆郡小豆島町草壁本町438-3",
    "lat": 34.481796,
    "lng": 134.301682,
    "meeting_name": "例会",
    "schedule": "第3 水曜日 19:00～21:00",
    "contact_phone": "",
    "prefecture": "香川県",
    "next_date": null,
    "start_time": null,
    "end_time": null,
    "recurrence": null,
    "building_name": null,
    "meeting_type": "通常",
    "official_url": "https://kagawa-dansyu.com"
  },
  {
    "id": 1107,
    "facility_name": "小豆島病院",
    "address": "香川県小豆郡小豆島町池田2519-4",
    "lat": 34.486359,
    "lng": 134.245407,
    "meeting_name": "例会",
    "schedule": "第4 日曜日 10:00～12:00",
    "contact_phone": "",
    "prefecture": "香川県",
    "next_date": null,
    "start_time": null,
    "end_time": null,
    "recurrence": null,
    "building_name": null,
    "meeting_type": "通常",
    "official_url": "https://kagawa-dansyu.com"
  },
  {
    "id": 1108,
    "facility_name": "土庄町子育て支援センター",
    "address": "香川県小豆郡土庄町渕崎甲1400-10",
    "lat": 34.486176,
    "lng": 134.188675,
    "meeting_name": "例会",
    "schedule": "第4 水曜日 19:00～21:00",
    "contact_phone": "",
    "prefecture": "香川県",
    "next_date": null,
    "start_time": null,
    "end_time": null,
    "recurrence": null,
    "building_name": null,
    "meeting_type": "通常",
    "official_url": "https://kagawa-dansyu.com"
  },
  {
    "id": 1109,
    "facility_name": "多肥コミュニティセンター",
    "address": "香川県高松市多肥上町４３３−５",
    "lat": 34.29055,
    "lng": 134.050507,
    "meeting_name": "多肥例会",
    "schedule": "最終週 日曜日 14:00～16:00",
    "contact_phone": "",
    "prefecture": "香川県",
    "next_date": null,
    "start_time": null,
    "end_time": null,
    "recurrence": null,
    "building_name": null,
    "meeting_type": "通常",
    "official_url": "https://kagawa-dansyu.com"
  },
  {
    "id": 1110,
    "facility_name": "国分寺北部コミュニティセンター",
    "address": "高松市国分寺町新居１８４０−６",
    "lat": 34.305515,
    "lng": 133.962128,
    "meeting_name": "家族会",
    "schedule": "第3 土曜日 13:30～15:30",
    "contact_phone": "",
    "prefecture": "香川県",
    "next_date": null,
    "start_time": null,
    "end_time": null,
    "recurrence": null,
    "building_name": null,
    "meeting_type": "家族会",
    "official_url": "https://kagawa-dansyu.com"
  },
  {
    "id": 1111,
    "facility_name": "馬場病院",
    "address": "香川県高松市郷東町580",
    "lat": 34.34874,
    "lng": 134.014404,
    "meeting_name": "馬場病院例会",
    "schedule": "第2･4 水曜日 13:30～15:30",
    "contact_phone": "",
    "prefecture": "香川県",
    "next_date": null,
    "start_time": null,
    "end_time": null,
    "recurrence": null,
    "building_name": null,
    "meeting_type": "通常",
    "official_url": "https://kagawa-dansyu.com"
  },
  {
    "id": 1112,
    "facility_name": "御荘診療所",
    "address": "愛媛県南宇和郡愛南町御荘平山846",
    "lat": 32.97213,
    "lng": 132.536377,
    "meeting_name": "例会",
    "schedule": "毎週 火曜日 16:30～18:30",
    "contact_phone": "",
    "prefecture": "愛媛県",
    "next_date": null,
    "start_time": null,
    "end_time": null,
    "recurrence": null,
    "building_name": null,
    "meeting_type": "通常",
    "official_url": "meeting.html?mtg_id=1421&date=2026-05-01"
  },
  {
    "id": 1113,
    "facility_name": "平城公民館",
    "address": "愛媛県南宇和郡愛南町御荘平城2123-1",
    "lat": 32.962837,
    "lng": 132.566345,
    "meeting_name": "例会",
    "schedule": "第1 水曜日 19:00～21:00",
    "contact_phone": "",
    "prefecture": "愛媛県",
    "next_date": null,
    "start_time": null,
    "end_time": null,
    "recurrence": null,
    "building_name": null,
    "meeting_type": "通常",
    "official_url": "meeting.html?mtg_id=1422&date=2026-05-01"
  },
  {
    "id": 1114,
    "facility_name": "城辺保健福祉センター",
    "address": "愛媛県南宇和郡愛南町城辺甲2487",
    "lat": 32.963356,
    "lng": 132.585754,
    "meeting_name": "例会",
    "schedule": "第1･4 土曜日 13:00～15:00",
    "contact_phone": "",
    "prefecture": "愛媛県",
    "next_date": null,
    "start_time": null,
    "end_time": null,
    "recurrence": null,
    "building_name": null,
    "meeting_type": "通常",
    "official_url": "meeting.html?mtg_id=1424&date=2026-05-01"
  },
  {
    "id": 1115,
    "facility_name": "ハーモニー多目的室",
    "address": "愛媛県松山市若草町8-2",
    "lat": 33.846867,
    "lng": 132.761215,
    "meeting_name": "オレンジの会　家族会",
    "schedule": "1･2･3･4･5･6･7･8･9･10･11･12月 第3 日曜日 13:00～15:00",
    "contact_phone": "",
    "prefecture": "愛媛県",
    "next_date": null,
    "start_time": null,
    "end_time": null,
    "recurrence": null,
    "building_name": null,
    "meeting_type": "その他",
    "official_url": "meeting.html?mtg_id=1988&date=2026-05-01"
  },
  {
    "id": 1116,
    "facility_name": "松山市ハーモニープラザ",
    "address": "松山市若草町８−３",
    "lat": 33.846867,
    "lng": 132.761215,
    "meeting_name": "例会",
    "schedule": "第1･4 日曜日 14:00～16:00",
    "contact_phone": "",
    "prefecture": "愛媛県",
    "next_date": null,
    "start_time": null,
    "end_time": null,
    "recurrence": null,
    "building_name": null,
    "meeting_type": "通常",
    "official_url": "meeting.html?mtg_id=1468&date=2026-05-01"
  },
  {
    "id": 1117,
    "facility_name": "寒川公民館",
    "address": "愛媛県四国中央市寒川町1390",
    "lat": 33.965981,
    "lng": 133.516953,
    "meeting_name": "例会",
    "schedule": "第4 水曜日 19:00～21:00",
    "contact_phone": "",
    "prefecture": "愛媛県",
    "next_date": null,
    "start_time": null,
    "end_time": null,
    "recurrence": null,
    "building_name": null,
    "meeting_type": "通常",
    "official_url": "meeting.html?mtg_id=1430&date=2026-05-01"
  },
  {
    "id": 1118,
    "facility_name": "妻鳥公民館",
    "address": "愛媛県四国中央市妻鳥町1480-2",
    "lat": 33.992119,
    "lng": 133.571823,
    "meeting_name": "例会",
    "schedule": "第2 木曜日 19:00～21:00",
    "contact_phone": "",
    "prefecture": "愛媛県",
    "next_date": null,
    "start_time": null,
    "end_time": null,
    "recurrence": null,
    "building_name": null,
    "meeting_type": "通常",
    "official_url": "meeting.html?mtg_id=1431&date=2026-05-01"
  },
  {
    "id": 1119,
    "facility_name": "三島公民館",
    "address": "愛媛県四国中央市三島中央3丁目4-21",
    "lat": 33.98098,
    "lng": 133.54393,
    "meeting_name": "例会",
    "schedule": "第3 木曜日 19:00～21:00",
    "contact_phone": "",
    "prefecture": "愛媛県",
    "next_date": null,
    "start_time": null,
    "end_time": null,
    "recurrence": null,
    "building_name": null,
    "meeting_type": "通常",
    "official_url": "meeting.html?mtg_id=1432&date=2026-05-01"
  },
  {
    "id": 1120,
    "facility_name": "川之江公民館",
    "address": "愛媛県四国中央市川之江町1856",
    "lat": 34.012459,
    "lng": 133.574677,
    "meeting_name": "例会",
    "schedule": "第1 金曜日 19:00～21:00",
    "contact_phone": "",
    "prefecture": "愛媛県",
    "next_date": null,
    "start_time": null,
    "end_time": null,
    "recurrence": null,
    "building_name": null,
    "meeting_type": "通常",
    "official_url": "meeting.html?mtg_id=1433&date=2026-05-01"
  },
  {
    "id": 1121,
    "facility_name": "今治市総合福祉センター",
    "address": "愛媛県今治市南宝来町1-9-8",
    "lat": 34.060432,
    "lng": 132.997726,
    "meeting_name": "例会",
    "schedule": "第1 火曜日 19:00～21:00 第3 木曜日 19:00～21:00 第4 金曜日 19:00～21:00",
    "contact_phone": "",
    "prefecture": "愛媛県",
    "next_date": null,
    "start_time": null,
    "end_time": null,
    "recurrence": null,
    "building_name": null,
    "meeting_type": "通常",
    "official_url": "meeting.html?mtg_id=1419&date=2026-05-01"
  },
  {
    "id": 1122,
    "facility_name": "西伯方地域住民学習センター",
    "address": "愛媛県今治市伯方町叶浦甲1666-5",
    "lat": 34.208508,
    "lng": 133.079269,
    "meeting_name": "例会",
    "schedule": "第2 日曜日 13:00～15:00",
    "contact_phone": "",
    "prefecture": "愛媛県",
    "next_date": null,
    "start_time": null,
    "end_time": null,
    "recurrence": null,
    "building_name": null,
    "meeting_type": "通常",
    "official_url": "meeting.html?mtg_id=1420&date=2026-05-01"
  },
  {
    "id": 1123,
    "facility_name": "和霊公民館",
    "address": "愛媛県宇和島市東和霊町3丁目1-3",
    "lat": 33.223251,
    "lng": 132.560867,
    "meeting_name": "例会",
    "schedule": "毎週 金曜日 19:00～21:00",
    "contact_phone": "",
    "prefecture": "愛媛県",
    "next_date": null,
    "start_time": null,
    "end_time": null,
    "recurrence": null,
    "building_name": null,
    "meeting_type": "通常",
    "official_url": "meeting.html?mtg_id=1428&date=2026-05-01"
  },
  {
    "id": 1124,
    "facility_name": "正光会宇和島病院",
    "address": "愛媛県宇和島市柿原1280",
    "lat": 33.236778,
    "lng": 132.584732,
    "meeting_name": "例会",
    "schedule": "第2 日曜日 14:00～16:00",
    "contact_phone": "",
    "prefecture": "愛媛県",
    "next_date": null,
    "start_time": null,
    "end_time": null,
    "recurrence": null,
    "building_name": null,
    "meeting_type": "通常",
    "official_url": "meeting.html?mtg_id=1429&date=2026-05-01"
  },
  {
    "id": 1125,
    "facility_name": "松山市ハーモニープラザ",
    "address": "愛媛県松山市若草町8-3",
    "lat": 33.846867,
    "lng": 132.761215,
    "meeting_name": "例会",
    "schedule": "第2 水曜日 18:30～20:30 毎週 土曜日 18:30～20:30",
    "contact_phone": "",
    "prefecture": "愛媛県",
    "next_date": null,
    "start_time": null,
    "end_time": null,
    "recurrence": null,
    "building_name": null,
    "meeting_type": "通常",
    "official_url": "meeting.html?mtg_id=1418&date=2026-05-01"
  },
  {
    "id": 1126,
    "facility_name": "小松公民館",
    "address": "愛媛県西条市小松町新屋敷甲3008",
    "lat": 33.895889,
    "lng": 133.112381,
    "meeting_name": "例会",
    "schedule": "第1･2 水曜日 19:00～21:00",
    "contact_phone": "",
    "prefecture": "愛媛県",
    "next_date": null,
    "start_time": null,
    "end_time": null,
    "recurrence": null,
    "building_name": null,
    "meeting_type": "通常",
    "official_url": "meeting.html?mtg_id=1434&date=2026-05-01"
  },
  {
    "id": 1127,
    "facility_name": "西条市中央公民館",
    "address": "愛媛県西条市周布401-1",
    "lat": 33.92749,
    "lng": 133.082214,
    "meeting_name": "例会",
    "schedule": "第4 水曜日 19:00～21:00",
    "contact_phone": "",
    "prefecture": "愛媛県",
    "next_date": null,
    "start_time": null,
    "end_time": null,
    "recurrence": null,
    "building_name": null,
    "meeting_type": "通常",
    "official_url": "meeting.html?mtg_id=1435&date=2026-05-01"
  },
  {
    "id": 1128,
    "facility_name": "新居浜市市民文化センター",
    "address": "愛媛県新居浜市繁本町8-65",
    "lat": 33.962486,
    "lng": 133.282028,
    "meeting_name": "例会",
    "schedule": "第1･4 金曜日 19:00～21:00",
    "contact_phone": "",
    "prefecture": "愛媛県",
    "next_date": null,
    "start_time": null,
    "end_time": null,
    "recurrence": null,
    "building_name": null,
    "meeting_type": "通常",
    "official_url": "meeting.html?mtg_id=1425&date=2026-05-01"
  },
  {
    "id": 1129,
    "facility_name": "新居浜協立病院",
    "address": "愛媛県新居浜市若水町1丁目7-45",
    "lat": 33.966419,
    "lng": 133.279343,
    "meeting_name": "例会",
    "schedule": "第2･3 金曜日 19:00～21:00",
    "contact_phone": "",
    "prefecture": "愛媛県",
    "next_date": null,
    "start_time": null,
    "end_time": null,
    "recurrence": null,
    "building_name": null,
    "meeting_type": "通常",
    "official_url": "meeting.html?mtg_id=1426&date=2026-05-01"
  },
  {
    "id": 1130,
    "facility_name": "新居浜市高津公民館",
    "address": "愛媛県新居浜市沢津町2丁目3-30",
    "lat": 33.974575,
    "lng": 133.300919,
    "meeting_name": "例会",
    "schedule": "第5 金曜日 19:00～21:00",
    "contact_phone": "",
    "prefecture": "愛媛県",
    "next_date": null,
    "start_time": null,
    "end_time": null,
    "recurrence": null,
    "building_name": null,
    "meeting_type": "通常",
    "official_url": "meeting.html?mtg_id=1427&date=2026-05-01"
  },
  {
    "id": 1131,
    "facility_name": "西条市小松公民館",
    "address": "西条市小松町新屋敷３００８",
    "lat": 33.893143,
    "lng": 133.11586,
    "meeting_name": "例会",
    "schedule": "第2 金曜日 19:00～21:00",
    "contact_phone": "",
    "prefecture": "愛媛県",
    "next_date": null,
    "start_time": null,
    "end_time": null,
    "recurrence": null,
    "building_name": null,
    "meeting_type": "通常",
    "official_url": "meeting.html?mtg_id=1464&date=2026-05-01"
  },
  {
    "id": 1132,
    "facility_name": "西条市中央公民館",
    "address": "西条市周布401−1",
    "lat": 33.92749,
    "lng": 133.082214,
    "meeting_name": "例会",
    "schedule": "第4 金曜日 19:00～21:00",
    "contact_phone": "",
    "prefecture": "愛媛県",
    "next_date": null,
    "start_time": null,
    "end_time": null,
    "recurrence": null,
    "building_name": null,
    "meeting_type": "通常",
    "official_url": "meeting.html?mtg_id=1465&date=2026-05-01"
  },
  {
    "id": 1133,
    "facility_name": "松山記念病院内地域活動支援センター",
    "address": "愛媛県松山市美沢1丁目10-38",
    "lat": 33.851223,
    "lng": 132.750595,
    "meeting_name": "例会",
    "schedule": "毎週 木曜日 19:00～21:00",
    "contact_phone": "",
    "prefecture": "愛媛県",
    "next_date": null,
    "start_time": null,
    "end_time": null,
    "recurrence": null,
    "building_name": null,
    "meeting_type": "通常",
    "official_url": "meeting.html?mtg_id=1415&date=2026-05-01"
  },
  {
    "id": 1134,
    "facility_name": "愛媛県男女共同参画センター",
    "address": "愛媛県松山市山越町450",
    "lat": 33.855057,
    "lng": 132.756302,
    "meeting_name": "例会",
    "schedule": "第1･2･3･5 日曜日 19:00～21:00",
    "contact_phone": "",
    "prefecture": "愛媛県",
    "next_date": null,
    "start_time": null,
    "end_time": null,
    "recurrence": null,
    "building_name": null,
    "meeting_type": "通常",
    "official_url": "meeting.html?mtg_id=1416&date=2026-05-01"
  },
  {
    "id": 1135,
    "facility_name": "西条市総合福祉センター",
    "address": "愛媛県西条市神拝甲324-2",
    "lat": 33.91457,
    "lng": 133.182312,
    "meeting_name": "例会",
    "schedule": "第2 土曜日 19:00～21:00 第4 木曜日 19:00～21:00",
    "contact_phone": "",
    "prefecture": "愛媛県",
    "next_date": null,
    "start_time": null,
    "end_time": null,
    "recurrence": null,
    "building_name": null,
    "meeting_type": "通常",
    "official_url": "meeting.html?mtg_id=1436&date=2026-05-01"
  },
  {
    "id": 1136,
    "facility_name": "下司病院",
    "address": "高知県高知市本町3ー5-13",
    "lat": 33.557186,
    "lng": 133.536499,
    "meeting_name": "下司病院例会",
    "schedule": "毎週 月曜日 19:00～20:50",
    "contact_phone": "",
    "prefecture": "高知県",
    "next_date": null,
    "start_time": null,
    "end_time": null,
    "recurrence": null,
    "building_name": null,
    "meeting_type": "通常",
    "official_url": "meeting.html?mtg_id=1451&date=2026-05-01"
  },
  {
    "id": 1137,
    "facility_name": "事務所",
    "address": "高知県高知市若松町215",
    "lat": 33.552803,
    "lng": 133.564636,
    "meeting_name": "事務所例会",
    "schedule": "第2･5 火曜日 19:00～21:00",
    "contact_phone": "",
    "prefecture": "高知県",
    "next_date": null,
    "start_time": null,
    "end_time": null,
    "recurrence": null,
    "building_name": null,
    "meeting_type": "通常",
    "official_url": "http://www.kcb-net.ne.jp/dansyu/"
  },
  {
    "id": 1138,
    "facility_name": "勤労者交流館",
    "address": "高知県高知市丸池町1-1-1-14",
    "lat": 33.56089,
    "lng": 133.560394,
    "meeting_name": "例会",
    "schedule": "第1･2･3･4･5 土曜日 19:00～20:50",
    "contact_phone": "",
    "prefecture": "高知県",
    "next_date": null,
    "start_time": null,
    "end_time": null,
    "recurrence": null,
    "building_name": null,
    "meeting_type": "通常",
    "official_url": "meeting.html?mtg_id=1450&date=2026-05-01"
  },
  {
    "id": 1139,
    "facility_name": "宿毛市立中央公民館",
    "address": "高知県宿毛市中央2丁目7番14号",
    "lat": 32.938866,
    "lng": 132.730637,
    "meeting_name": "例会",
    "schedule": "第1･2･3･4･5 日曜日 19:00～21:00",
    "contact_phone": "",
    "prefecture": "高知県",
    "next_date": null,
    "start_time": null,
    "end_time": null,
    "recurrence": null,
    "building_name": null,
    "meeting_type": "通常",
    "official_url": "meeting.html?mtg_id=1460&date=2026-05-01"
  },
  {
    "id": 1140,
    "facility_name": "南国市地域交流センターMIARE!",
    "address": "高知県南国市大そね甲2117",
    "lat": 33.665726,
    "lng": 133.57457,
    "meeting_name": "南国例会",
    "schedule": "第3 月曜日 19:00～21:00",
    "contact_phone": "",
    "prefecture": "高知県",
    "next_date": null,
    "start_time": null,
    "end_time": null,
    "recurrence": null,
    "building_name": null,
    "meeting_type": "通常",
    "official_url": "http://www.kcb-net.ne.jp/dansyu/"
  },
  {
    "id": 1141,
    "facility_name": "土佐市複合文化施設（つなーで）",
    "address": "高知県土佐市高岡町乙3451-1",
    "lat": 33.49939,
    "lng": 133.427902,
    "meeting_name": "土佐市例会",
    "schedule": "第3 木曜日 19:00～20:50",
    "contact_phone": "",
    "prefecture": "高知県",
    "next_date": null,
    "start_time": null,
    "end_time": null,
    "recurrence": null,
    "building_name": null,
    "meeting_type": "通常",
    "official_url": "meeting.html?mtg_id=1452&date=2026-05-01"
  },
  {
    "id": 1142,
    "facility_name": "安芸市総合社会福祉会センター",
    "address": "高知県安芸市寿町2-8",
    "lat": 33.498394,
    "lng": 133.904236,
    "meeting_name": "安芸例会",
    "schedule": "第4 火曜日 19:00～21:00",
    "contact_phone": "",
    "prefecture": "高知県",
    "next_date": null,
    "start_time": null,
    "end_time": null,
    "recurrence": null,
    "building_name": null,
    "meeting_type": "通常",
    "official_url": "http://www.kcb-net.ne.jp/dansyu/"
  },
  {
    "id": 1143,
    "facility_name": "土佐町農村環境改善センター",
    "address": "高知県土佐郡土佐町田井1450",
    "lat": 33.748199,
    "lng": 133.55632,
    "meeting_name": "嶺北例会",
    "schedule": "第1 土曜日 19:00～21:00",
    "contact_phone": "",
    "prefecture": "高知県",
    "next_date": null,
    "start_time": null,
    "end_time": null,
    "recurrence": null,
    "building_name": null,
    "meeting_type": "通常",
    "official_url": "http://www.kcb-net.ne.jp/dansyu/"
  },