[
  {
    "id": 255,
    "facility_name": "ウェルネス柏",
    "address": "千葉県柏市柏下６５−１−６５−１",
    "lat": 35.8669173,
    "lng": 139.9866516,
    "meeting_name": "柏例会",
    "schedule": "",
    "contact_phone": "",
    "prefecture": "千葉県",
    "next_date": "",
    "start_time": "",
    "end_time": "",
    "recurrence": "",
    "building_name": "",
    "meeting_type": "通常",
    "official_url": "https://sites.google.com/view/chibadanshu/"
  },
  {
    "id": 258,
    "facility_name": "鎌ケ谷市 総合福祉保健センター",
    "address": "千葉県鎌ケ谷市新鎌ケ谷２丁目６−１",
    "lat": 35.7768081,
    "lng": 140.00084,
    "meeting_name": "鎌ケ谷例会",
    "schedule": "",
    "contact_phone": "",
    "prefecture": "千葉県",
    "next_date": "",
    "start_time": "",
    "end_time": "",
    "recurrence": "",
    "building_name": "",
    "meeting_type": "通常",
    "official_url": "https://sites.google.com/view/chibadanshu/"
  },
  {
    "id": 156,
    "facility_name": "あいパル上戸田地域交流センター",
    "address": "戸田市上戸田２－２１－１",
    "lat": 35.8125457,
    "lng": 139.6808877,
    "meeting_name": "戸田例会",
    "schedule": "",
    "contact_phone": "",
    "prefecture": "埼玉県",
    "next_date": "",
    "start_time": "",
    "end_time": "",
    "recurrence": "",
    "building_name": "",
    "meeting_type": "通常",
    "official_url": "https://www.saitama-danshu.or.jp/index.html"
  },
  {
    "id": 144,
    "facility_name": "さいたま市民会館おおみや",
    "address": "さいたま市大宮区大門2-118  大宮門街６F",
    "lat": 35.9072048,
    "lng": 139.6277922,
    "meeting_name": "さいたま市大宮例会",
    "schedule": "",
    "contact_phone": "",
    "prefecture": "埼玉県",
    "next_date": "",
    "start_time": "",
    "end_time": "",
    "recurrence": "",
    "building_name": "",
    "meeting_type": "通常",
    "official_url": "https://www.saitama-danshu.or.jp/index.html"
  },
  {
    "id": 148,
    "facility_name": "さいたま新都心けやき広場",
    "address": "さいたま市中央区新都心10",
    "lat": 35.8933795,
    "lng": 139.6309249,
    "meeting_name": "さいたま市中央例会",
    "schedule": "",
    "contact_phone": "",
    "prefecture": "埼玉県",
    "next_date": "",
    "start_time": "",
    "end_time": "",
    "recurrence": "",
    "building_name": "",
    "meeting_type": "通常",
    "official_url": "https://www.saitama-danshu.or.jp/index.html"
  },
  {
    "id": 166,
    "facility_name": "はにぽんプラザ",
    "address": "本庄市銀座1-1-1",
    "lat": 36.238615,
    "lng": 139.1848107,
    "meeting_name": "本庄例会",
    "schedule": "",
    "contact_phone": "",
    "prefecture": "埼玉県",
    "next_date": "",
    "start_time": "",
    "end_time": "",
    "recurrence": "",
    "building_name": "",
    "meeting_type": "通常",
    "official_url": "https://www.saitama-danshu.or.jp/index.html"
  },
  {
    "id": 140,
    "facility_name": "ふじみ野市市民交流プラザ　フクトピア",
    "address": "ふじみ野市福岡1-2-5",
    "lat": 35.8780612,
    "lng": 139.5218928,
    "meeting_name": "ふじみ野例会",
    "schedule": "",
    "contact_phone": "",
    "prefecture": "埼玉県",
    "next_date": "",
    "start_time": "",
    "end_time": "",
    "recurrence": "",
    "building_name": "",
    "meeting_type": "通常",
    "official_url": "https://www.saitama-danshu.or.jp/index.html"
  },
  {
    "id": 149,
    "facility_name": "ふれあい館",
    "address": "さいたま市浦和区常盤9丁目30番22号",
    "lat": 35.871148,
    "lng": 139.642795,
    "meeting_name": "さいたま市浦和例会",
    "schedule": "",
    "contact_phone": "",
    "prefecture": "埼玉県",
    "next_date": "",
    "start_time": "",
    "end_time": "",
    "recurrence": "",
    "building_name": "",
    "meeting_type": "通常",
    "official_url": "https://www.saitama-danshu.or.jp/index.html"
  },
  {
    "id": 131,
    "facility_name": "コミュニティセンターいわつき",
    "address": "さいたま市岩槻区本町1-10-7",
    "lat": 35.9470694,
    "lng": 139.6917085,
    "meeting_name": "さいたま市岩槻区本例会",
    "schedule": "",
    "contact_phone": "",
    "prefecture": "埼玉県",
    "next_date": "",
    "start_time": "",
    "end_time": "",
    "recurrence": "",
    "building_name": "",
    "meeting_type": "通常",
    "official_url": "https://www.saitama-danshu.or.jp/index.html"
  },
  {
    "id": 65,
    "facility_name": "下落合コミュニティセンター",
    "address": "埼玉県さいたま市中央区下落合１７１２ 103 スカイレジデンシャル",
    "lat": 35.8847567,
    "lng": 139.6367987,
    "meeting_name": "さいたま例会",
    "schedule": "",
    "contact_phone": "",
    "prefecture": "埼玉県",
    "next_date": "",
    "start_time": "",
    "end_time": "",
    "recurrence": "",
    "building_name": "",
    "meeting_type": "通常",
    "official_url": "https://www.saitama-danshu.or.jp/index.html"
  },
  {
    "id": 135,
    "facility_name": "下落合コミュニティーセンター",
    "address": "さいたま市中央区大字下落合1712     NW -301・401",
    "lat": 35.8847567,
    "lng": 139.6367987,
    "meeting_name": "さいたま市中央例会",
    "schedule": "",
    "contact_phone": "",
    "prefecture": "埼玉県",
    "next_date": "",
    "start_time": "",
    "end_time": "",
    "recurrence": "",
    "building_name": "",
    "meeting_type": "通常",
    "official_url": "https://www.saitama-danshu.or.jp/index.html"
  },
  {
    "id": 146,
    "facility_name": "下落合コミュニティーセンター",
    "address": "さいたま市中央区大字下落合1712 NW -301・401",
    "lat": 35.8847567,
    "lng": 139.6367987,
    "meeting_name": "さいたま市中央例会",
    "schedule": "",
    "contact_phone": "",
    "prefecture": "埼玉県",
    "next_date": "",
    "start_time": "",
    "end_time": "",
    "recurrence": "",
    "building_name": "",
    "meeting_type": "通常",
    "official_url": "https://www.saitama-danshu.or.jp/index.html"
  },
  {
    "id": 147,
    "facility_name": "北浦和公園音楽噴水前",
    "address": "さいたま市浦和区常盤9丁目30",
    "lat": 35.8710585,
    "lng": 139.6425388,
    "meeting_name": "さいたま市浦和例会",
    "schedule": "",
    "contact_phone": "",
    "prefecture": "埼玉県",
    "next_date": "",
    "start_time": "",
    "end_time": "",
    "recurrence": "",
    "building_name": "",
    "meeting_type": "通常",
    "official_url": "https://www.saitama-danshu.or.jp/index.html"
  },
  {
    "id": 142,
    "facility_name": "和光市白子吹上コミュニティーセンター",
    "address": "和光市白子3-8-21",
    "lat": 35.78893619999999,
    "lng": 139.6282305,
    "meeting_name": "和光例会",
    "schedule": "",
    "contact_phone": "",
    "prefecture": "埼玉県",
    "next_date": "",
    "start_time": "",
    "end_time": "",
    "recurrence": "",
    "building_name": "",
    "meeting_type": "通常",
    "official_url": "https://www.saitama-danshu.or.jp/index.html"
  },
  {
    "id": 63,
    "facility_name": "埼玉県障害者交流センター",
    "address": "埼玉県さいたま市浦和区大原３丁目１０−１",
    "lat": 35.89442409999999,
    "lng": 139.6493568,
    "meeting_name": "さいたま例会",
    "schedule": "",
    "contact_phone": "",
    "prefecture": "埼玉県",
    "next_date": "",
    "start_time": "",
    "end_time": "",
    "recurrence": "",
    "building_name": "",
    "meeting_type": "通常",
    "official_url": "https://www.saitama-danshu.or.jp/index.html"
  },
  {
    "id": 150,
    "facility_name": "大宮門街レイボックホール",
    "address": "さいたま市大宮区大門町2-118　大宮門街4-8F",
    "lat": 35.9073411,
    "lng": 139.6273466,
    "meeting_name": "さいたま市大宮区大門例会",
    "schedule": "",
    "contact_phone": "",
    "prefecture": "埼玉県",
    "next_date": "",
    "start_time": "",
    "end_time": "",
    "recurrence": "",
    "building_name": "",
    "meeting_type": "通常",
    "official_url": "https://www.saitama-danshu.or.jp/index.html"
  },
  {
    "id": 137,
    "facility_name": "富士見市針ヶ谷コミュニティーセンター",
    "address": "富士見市針ヶ谷1-38",
    "lat": 35.8320496,
    "lng": 139.5539752,
    "meeting_name": "富士見例会",
    "schedule": "",
    "contact_phone": "",
    "prefecture": "埼玉県",
    "next_date": "",
    "start_time": "",
    "end_time": "",
    "recurrence": "",
    "building_name": "",
    "meeting_type": "通常",
    "official_url": "https://www.saitama-danshu.or.jp/index.html"
  },
  {
    "id": 128,
    "facility_name": "岩槻駅東口 コミュニティーセンター",
    "address": "さいたま市岩槻区本町3-1-1",
    "lat": 35.950119,
    "lng": 139.6932583,
    "meeting_name": "さいたま市岩槻区本例会",
    "schedule": "",
    "contact_phone": "",
    "prefecture": "埼玉県",
    "next_date": "",
    "start_time": "",
    "end_time": "",
    "recurrence": "",
    "building_name": "",
    "meeting_type": "通常",
    "official_url": "https://www.saitama-danshu.or.jp/index.html"
  },
  {
    "id": 157,
    "facility_name": "川口並木公民館",
    "address": "川口市並木2-8-2",
    "lat": 35.8168722,
    "lng": 139.7089682,
    "meeting_name": "川口例会",
    "schedule": "",
    "contact_phone": "",
    "prefecture": "埼玉県",
    "next_date": "",
    "start_time": "",
    "end_time": "",
    "recurrence": "",
    "building_name": "",
    "meeting_type": "通常",
    "official_url": "https://www.saitama-danshu.or.jp/index.html"
  },
  {
    "id": 151,
    "facility_name": "川口幸栄公民館",
    "address": "川口市幸町３－８－３３",
    "lat": 35.8054912,
    "lng": 139.7178743,
    "meeting_name": "川口市幸例会",
    "schedule": "",
    "contact_phone": "",
    "prefecture": "埼玉県",
    "next_date": "",
    "start_time": "",
    "end_time": "",
    "recurrence": "",
    "building_name": "",
    "meeting_type": "通常",
    "official_url": "https://www.saitama-danshu.or.jp/index.html"
  },
  {
    "id": 155,
    "facility_name": "川口里公民館",
    "address": "川口市大字里１４７８－１",
    "lat": 35.8285958,
    "lng": 139.7308348,
    "meeting_name": "鳩ヶ谷例会",
    "schedule": "",
    "contact_phone": "",
    "prefecture": "埼玉県",
    "next_date": "",
    "start_time": "",
    "end_time": "",
    "recurrence": "第1・第5金曜（第5金曜がある月のみ）",
    "building_name": "",
    "meeting_type": "通常",
    "official_url": "https://www.saitama-danshu.or.jp/index.html"
  },
  {
    "id": 141,
    "facility_name": "川越市高階市民センター",
    "address": "川越市藤間27-1",
    "lat": 35.8859582,
    "lng": 139.4965871,
    "meeting_name": "川越例会",
    "schedule": "",
    "contact_phone": "",
    "prefecture": "埼玉県",
    "next_date": "",
    "start_time": "",
    "end_time": "",
    "recurrence": "",
    "building_name": "",
    "meeting_type": "通常",
    "official_url": "https://www.saitama-danshu.or.jp/index.html"
  },
  {
    "id": 129,
    "facility_name": "市民プラザかぞ",
    "address": "加須市中央2-4-17",
    "lat": 36.1234174,
    "lng": 139.59864,
    "meeting_name": "加須例会",
    "schedule": "",
    "contact_phone": "",
    "prefecture": "埼玉県",
    "next_date": "",
    "start_time": "",
    "end_time": "",
    "recurrence": "",
    "building_name": "",
    "meeting_type": "通常",
    "official_url": "https://www.saitama-danshu.or.jp/index.html"
  },
  {
    "id": 139,
    "facility_name": "所沢市立中央公民館",
    "address": "所沢市元町27-5",
    "lat": 35.7921822,
    "lng": 139.4639861,
    "meeting_name": "所沢市元例会",
    "schedule": "",
    "contact_phone": "",
    "prefecture": "埼玉県",
    "next_date": "",
    "start_time": "",
    "end_time": "",
    "recurrence": "",
    "building_name": "",
    "meeting_type": "通常",
    "official_url": "https://www.saitama-danshu.or.jp/index.html"
  },
  {
    "id": 138,
    "facility_name": "朝霞市産業文化センター",
    "address": "朝霞市浜崎669-1",
    "lat": 35.8133138,
    "lng": 139.590402,
    "meeting_name": "朝霞例会",
    "schedule": "",
    "contact_phone": "",
    "prefecture": "埼玉県",
    "next_date": "",
    "start_time": "",
    "end_time": "",
    "recurrence": "",
    "building_name": "",
    "meeting_type": "通常",
    "official_url": "https://www.saitama-danshu.or.jp/index.html"
  },
  {
    "id": 159,
    "facility_name": "東松山市松山市民活動センター",
    "address": "東松山市松本町1-9-35",
    "lat": 36.037929,
    "lng": 139.4109623,
    "meeting_name": "東松山市松本例会",
    "schedule": "",
    "contact_phone": "",
    "prefecture": "埼玉県",
    "next_date": "",
    "start_time": "",
    "end_time": "",
    "recurrence": "",
    "building_name": "",
    "meeting_type": "通常",
    "official_url": "https://www.saitama-danshu.or.jp/index.html"
  },
  {
    "id": 158,
    "facility_name": "桶川公民館",
    "address": "桶川市西1-5-21",
    "lat": 36.0026223,
    "lng": 139.5616561,
    "meeting_name": "桶川例会",
    "schedule": "",
    "contact_phone": "",
    "prefecture": "埼玉県",
    "next_date": "",
    "start_time": "",
    "end_time": "",
    "recurrence": "",
    "building_name": "",
    "meeting_type": "通常",
    "official_url": "https://www.saitama-danshu.or.jp/index.html"
  },
  {
    "id": 134,
    "facility_name": "武蔵浦和コミュニティセンター",
    "address": "さいたま市南区別所7-20-1 サウスピア8F",
    "lat": 35.8452444,
    "lng": 139.6454735,
    "meeting_name": "さいたま市南例会",
    "schedule": "",
    "contact_phone": "",
    "prefecture": "埼玉県",
    "next_date": "",
    "start_time": "",
    "end_time": "",
    "recurrence": "",
    "building_name": "",
    "meeting_type": "通常",
    "official_url": "https://www.saitama-danshu.or.jp/index.html"
  },
  {
    "id": 64,
    "facility_name": "浦和ふれあい館",
    "address": "埼玉県さいたま市浦和区常盤９丁目３０−２２",
    "lat": 35.8711464,
    "lng": 139.6428014,
    "meeting_name": "さいたま例会",
    "schedule": "",
    "contact_phone": "",
    "prefecture": "埼玉県",
    "next_date": "",
    "start_time": "",
    "end_time": "",
    "recurrence": "",
    "building_name": "",
    "meeting_type": "通常",
    "official_url": "https://www.saitama-danshu.or.jp/index.html"
  },
  {
    "id": 392,
    "facility_name": "浦和コミュニティセンター",
    "address": "埼玉県さいたま市浦和区東高砂町11-1",
    "lat": 35.858568,
    "lng": 139.6590796,
    "meeting_name": "浦和例会",
    "schedule": "",
    "contact_phone": "",
    "prefecture": "埼玉県",
    "next_date": "",
    "start_time": "",
    "end_time": "",
    "recurrence": "",
    "building_name": "浦和パルコ10F)",
    "meeting_type": "通常",
    "official_url": ""
  },
  {
    "id": 136,
    "facility_name": "浦和コミュニティーセンター",
    "address": "さいたま市浦和区東高砂町11-1 浦和",
    "lat": 35.858568,
    "lng": 139.6590796,
    "meeting_name": "さいたま市浦和区東高砂例会",
    "schedule": "",
    "contact_phone": "",
    "prefecture": "埼玉県",
    "next_date": "",
    "start_time": "",
    "end_time": "",
    "recurrence": "",
    "building_name": "",
    "meeting_type": "通常",
    "official_url": "https://www.saitama-danshu.or.jp/index.html"
  },
  {
    "id": 165,
    "facility_name": "深谷公民館",
    "address": "深谷市仲町20-2",
    "lat": 36.2006332,
    "lng": 139.2842876,
    "meeting_name": "深谷市仲例会",
    "schedule": "",
    "contact_phone": "",
    "prefecture": "埼玉県",
    "next_date": "",
    "start_time": "",
    "end_time": "",
    "recurrence": "",
    "building_name": "",
    "meeting_type": "通常",
    "official_url": "https://www.saitama-danshu.or.jp/index.html"
  },
  {
    "id": 168,
    "facility_name": "済生会鴻巣病院",
    "address": "鴻巣市八幡田849",
    "lat": 36.0730901,
    "lng": 139.5021799,
    "meeting_name": "鴻巣例会",
    "schedule": "",
    "contact_phone": "",
    "prefecture": "埼玉県",
    "next_date": "",
    "start_time": "",
    "end_time": "",
    "recurrence": "",
    "building_name": "",
    "meeting_type": "通常",
    "official_url": "https://www.saitama-danshu.or.jp/index.html"
  },
  {
    "id": 162,
    "facility_name": "熊谷市立市民ホール（中央公民館）",
    "address": "埼玉県熊谷市仲町19",
    "lat": 36.1475166,
    "lng": 139.3829333,
    "meeting_name": "熊谷市仲例会",
    "schedule": "",
    "contact_phone": "080-5514-7640",
    "prefecture": "埼玉県",
    "next_date": "",
    "start_time": "",
    "end_time": "",
    "recurrence": "",
    "building_name": "",
    "meeting_type": "通常",
    "official_url": "https://www.saitama-danshu.or.jp/index.html"
  },
  {
    "id": 169,
    "facility_name": "皆野病院",
    "address": "皆野町皆野2031-1",
    "lat": 36.0770979,
    "lng": 139.1012093,
    "meeting_name": "皆野例会",
    "schedule": "",
    "contact_phone": "",
    "prefecture": "埼玉県",
    "next_date": "",
    "start_time": "",
    "end_time": "",
    "recurrence": "",
    "building_name": "",
    "meeting_type": "通常",
    "official_url": "https://www.saitama-danshu.or.jp/index.html"
  },
  {
    "id": 130,
    "facility_name": "粕壁南公民館",
    "address": "春日部市南1-12-23",
    "lat": 35.9756235,
    "lng": 139.7588851,
    "meeting_name": "春日部例会",
    "schedule": "",
    "contact_phone": "",
    "prefecture": "埼玉県",
    "next_date": "",
    "start_time": "",
    "end_time": "",
    "recurrence": "",
    "building_name": "",
    "meeting_type": "通常",
    "official_url": "https://www.saitama-danshu.or.jp/index.html"
  },
  {
    "id": 133,
    "facility_name": "草加市立勤労福祉会館",
    "address": "草加市旭町6-13-20",
    "lat": 35.85132249999999,
    "lng": 139.792294,
    "meeting_name": "草加市旭例会",
    "schedule": "",
    "contact_phone": "",
    "prefecture": "埼玉県",
    "next_date": "",
    "start_time": "",
    "end_time": "",
    "recurrence": "",
    "building_name": "",
    "meeting_type": "通常",
    "official_url": "https://www.saitama-danshu.or.jp/index.html"
  },
  {
    "id": 153,
    "facility_name": "蕨南公民館",
    "address": "蕨市南町２－２３－１９",
    "lat": 35.8183185,
    "lng": 139.6961789,
    "meeting_name": "蕨市南例会",
    "schedule": "",
    "contact_phone": "",
    "prefecture": "埼玉県",
    "next_date": "",
    "start_time": "",
    "end_time": "",
    "recurrence": "",
    "building_name": "",
    "meeting_type": "通常",
    "official_url": "https://www.saitama-danshu.or.jp/index.html"
  },
  {
    "id": 152,
    "facility_name": "蕨市中央公民館",
    "address": "蕨市中央４－２１－２９",
    "lat": 35.8258595,
    "lng": 139.6820328,
    "meeting_name": "蕨例会",
    "schedule": "",
    "contact_phone": "",
    "prefecture": "埼玉県",
    "next_date": "",
    "start_time": "",
    "end_time": "",
    "recurrence": "",
    "building_name": "",
    "meeting_type": "通常",
    "official_url": "https://www.saitama-danshu.or.jp/index.html"
  },
  {
    "id": 154,
    "facility_name": "蕨旭町公民館",
    "address": "蕨市中央１－２３－８",
    "lat": 35.8267645,
    "lng": 139.6910616,
    "meeting_name": "蕨例会",
    "schedule": "",
    "contact_phone": "",
    "prefecture": "埼玉県",
    "next_date": "",
    "start_time": "",
    "end_time": "",
    "recurrence": "",
    "building_name": "",
    "meeting_type": "通常",
    "official_url": "https://www.saitama-danshu.or.jp/index.html"
  },
  {
    "id": 161,
    "facility_name": "行田市長野公民館",
    "address": "行田市長野1-4-8",
    "lat": 36.1430166,
    "lng": 139.4688292,
    "meeting_name": "行田例会",
    "schedule": "",
    "contact_phone": "",
    "prefecture": "埼玉県",
    "next_date": "",
    "start_time": "",
    "end_time": "",
    "recurrence": "",
    "building_name": "",
    "meeting_type": "通常",
    "official_url": "https://www.saitama-danshu.or.jp/index.html"
  },
  {
    "id": 132,
    "facility_name": "越谷市中央市民会館",
    "address": "越谷市越ヶ谷4-1-1",
    "lat": 35.8897351,
    "lng": 139.7915,
    "meeting_name": "越谷例会",
    "schedule": "",
    "contact_phone": "",
    "prefecture": "埼玉県",
    "next_date": "",
    "start_time": "",
    "end_time": "",
    "recurrence": "",
    "building_name": "",
    "meeting_type": "通常",
    "official_url": "https://www.saitama-danshu.or.jp/index.html"
  },
  {
    "id": 160,
    "facility_name": "鴻巣市市民センター",
    "address": "鴻巣市赤見台1-15-5",
    "lat": 36.0863971,
    "lng": 139.4787065,
    "meeting_name": "鴻巣例会",
    "schedule": "",
    "contact_phone": "",
    "prefecture": "埼玉県",
    "next_date": "",
    "start_time": "",
    "end_time": "",
    "recurrence": "",
    "building_name": "",
    "meeting_type": "通常",
    "official_url": "https://www.saitama-danshu.or.jp/index.html"
  },
  {
    "id": 373,
    "facility_name": "〒409-0112 山梨県上野原市上野原３８３２",
    "address": "山梨県上野原市上野原３８３２",
    "lat": 35.6300547,
    "lng": 139.1081617,
    "meeting_name": "上野原例会",
    "schedule": "",
    "contact_phone": "",
    "prefecture": "山梨県",
    "next_date": "",
    "start_time": "",
    "end_time": "",
    "recurrence": "",
    "building_name": "上野原市文化ホール(もみじホール),",
    "meeting_type": "通常",
    "official_url": "https://www.tokyo-danshu.or.jp/index.html"
  },
  {
    "id": 407,
    "facility_name": "IKE･Biz としま産業振興プラザ",
    "address": "東京都豊島区西池袋２丁目３７−４ Ike･Biz としま産業振興プラザ",
    "lat": 35.7277303,
    "lng": 139.706734,
    "meeting_name": "白菊家族会(夜）",
    "schedule": "",
    "contact_phone": "",
    "prefecture": "東京都",
    "next_date": "",
    "start_time": "",
    "end_time": "",
    "recurrence": "",
    "building_name": "",
    "meeting_type": "家族",
    "official_url": ""
  },
  {
    "id": 460,
    "facility_name": "IKE･Biz としま産業振興プラザ",
    "address": "東京都豊島区西池袋２丁目３７−４",
    "lat": 35.7297,
    "lng": 139.7104,
    "meeting_name": "白菊家族会",
    "schedule": "",
    "contact_phone": "",
    "prefecture": "東京都",
    "next_date": "",
    "start_time": "",
    "end_time": "",
    "recurrence": "",
    "building_name": "",
    "meeting_type": "通常",
    "official_url": "https://www.tokyo-danshu.or.jp"
  },
  {
    "id": 363,
    "facility_name": "NPO京王断酒会 いばしょ",
    "address": "東京都調布市布田1-29-4 川口第二",
    "lat": 35.6533767,
    "lng": 139.5453749,
    "meeting_name": "京王調布第４懇談会",
    "schedule": "",
    "contact_phone": "042-489-9357",
    "prefecture": "東京都",
    "next_date": "",
    "start_time": "",
    "end_time": "",
    "recurrence": "",
    "building_name": "自立支援センター",
    "meeting_type": "通常",
    "official_url": "https://keiodanshu.com"
  },
  {
    "id": 411,
    "facility_name": "「いばしょ」",
    "address": "「いばしょ」",
    "lat": 35.6764225,
    "lng": 139.650027,
    "meeting_name": "京王調布第２懇談会",
    "schedule": "",
    "contact_phone": "",
    "prefecture": "東京都",
    "next_date": "",
    "start_time": "",
    "end_time": "",
    "recurrence": "",
    "building_name": "自立支援センター",
    "meeting_type": "通常",
    "official_url": ""
  },
  {
    "id": 370,
    "facility_name": "くにたち福祉会館",
    "address": "東京都国立市富士見台２丁目３８−５",
    "lat": 35.687467166727785,
    "lng": 139.44450371547399,
    "meeting_name": "多摩酒害相談",
    "schedule": "",
    "contact_phone": "",
    "prefecture": "東京都",
    "next_date": "",
    "start_time": "",
    "end_time": "",
    "recurrence": "",
    "building_name": "くにたち福祉会館",
    "meeting_type": "酒害相談",
    "official_url": "http://www.tama-danshurengou.jpn.org"
  },
  {
    "id": 425,
    "facility_name": "くにたち福祉会館",
    "address": "東京都国立市富士見台２丁目３８−５",
    "lat": 35.687467166727785,
    "lng": 139.44450371547399,
    "meeting_name": "連合本部例会",
    "schedule": "第四金曜日 19:00〜21:00",
    "contact_phone": "090-6378-9350",
    "prefecture": "東京都",
    "next_date": "",
    "start_time": "19:00",
    "end_time": "21:00",
    "recurrence": "第4金曜",
    "building_name": "くにたち福祉会館",
    "meeting_type": "通常",
    "official_url": ""
  },
  {
    "id": 429,
    "facility_name": "くにたち福祉会館",
    "address": "東京都国立市富士見台２丁目３８−５",
    "lat": 35.687467166727785,
    "lng": 139.44450371547399,
    "meeting_name": "●■連合/多摩総会",
    "schedule": "",
    "contact_phone": "",
    "prefecture": "東京都",
    "next_date": "",
    "start_time": "",
    "end_time": "",
    "recurrence": "",
    "building_name": "くにたち福祉会館",
    "meeting_type": "通常",
    "official_url": ""
  },
  {
    "id": 543,
    "facility_name": "くにたち福祉会館",
    "address": "東京都国立市富士見台２丁目３８−５",
    "lat": 35.687467166727785,
    "lng": 139.44450371547399,
    "meeting_name": "多摩本部例会（家族会あり）",
    "schedule": "第一日曜日 13:00〜15:00",
    "contact_phone": "090-6378-9350",
    "prefecture": "東京都",
    "next_date": "",
    "start_time": "13:00",
    "end_time": "15:00",
    "recurrence": "第1日曜",
    "building_name": "",
    "meeting_type": "通常",
    "official_url": ""
  },
  {
    "id": 424,
    "facility_name": "まなぽーと大原（大原生涯学習センター）",
    "address": "まなぽーと大原（",
    "lat": 35.769695,
    "lng": 139.7001404,
    "meeting_name": "板橋第１例会",
    "schedule": "",
    "contact_phone": "",
    "prefecture": "東京都",
    "next_date": "",
    "start_time": "",
    "end_time": "",
    "recurrence": "",
    "building_name": "大原生涯学習センター）, 日本、〒174-0061 東京都板橋区大原町５−１８",
    "meeting_type": "通常",
    "official_url": ""
  },
  {
    "id": 410,
    "facility_name": "カムカム新蒲田",
    "address": "東京都大田区新蒲田１丁目１８−１６",
    "lat": 35.5574732,
    "lng": 139.7113395,
    "meeting_name": "大田第１例会",
    "schedule": "",
    "contact_phone": "",
    "prefecture": "東京都",
    "next_date": "",
    "start_time": "",
    "end_time": "",
    "recurrence": "",
    "building_name": "",
    "meeting_type": "通常",
    "official_url": ""
  },
  {
    "id": 449,
    "facility_name": "カムカム新蒲田",
    "address": "東京都大田区新蒲田１丁目１８−１６",
    "lat": 35.5601,
    "lng": 139.7163,
    "meeting_name": "大田第２例会",
    "schedule": "",
    "contact_phone": "",
    "prefecture": "東京都",
    "next_date": "",
    "start_time": "",
    "end_time": "",
    "recurrence": "",
    "building_name": "",
    "meeting_type": "通常",
    "official_url": "https://www.tokyo-danshu.or.jp"
  },
  {
    "id": 414,
    "facility_name": "ココネリ",
    "address": "東京都練馬区練馬１丁目１７−１",
    "lat": 35.7382309,
    "lng": 139.653358,
    "meeting_name": "練馬若葉会",
    "schedule": "",
    "contact_phone": "",
    "prefecture": "東京都",
    "next_date": "",
    "start_time": "",
    "end_time": "",
    "recurrence": "",
    "building_name": "",
    "meeting_type": "通常",
    "official_url": ""
  },
  {
    "id": 418,
    "facility_name": "サンパール荒川",
    "address": "東京都荒川区荒川１丁目１−",
    "lat": 35.7353807,
    "lng": 139.7851782,
    "meeting_name": "荒川例会",
    "schedule": "",
    "contact_phone": "",
    "prefecture": "東京都",
    "next_date": "",
    "start_time": "",
    "end_time": "",
    "recurrence": "",
    "building_name": "１ 荒川区民会館（サンパール荒川）",
    "meeting_type": "通常",
    "official_url": ""
  },
  {
    "id": 283,
    "facility_name": "タワーホール船堀",
    "address": "東京都江戸川区船堀４丁目１−１",
    "lat": 35.6842543,
    "lng": 139.8648859,
    "meeting_name": "江戸川第1例会",
    "schedule": "第1土曜日",
    "contact_phone": "",
    "prefecture": "東京都",
    "next_date": "",
    "start_time": "18:30",
    "end_time": "20:30",
    "recurrence": "",
    "building_name": "",
    "meeting_type": "通常",
    "official_url": "https://www.tokyo-danshu.or.jp/index.html"
  },
  {
    "id": 368,
    "facility_name": "タワーホール船堀",
    "address": "東京都江戸川区船堀４丁目１−１",
    "lat": 35.6842543,
    "lng": 139.8648859,
    "meeting_name": "江戸川第2例会",
    "schedule": "第3土曜日",
    "contact_phone": "",
    "prefecture": "東京都",
    "next_date": "",
    "start_time": "18:30",
    "end_time": "20:30",
    "recurrence": "",
    "building_name": "タワーホール船堀",
    "meeting_type": "通常",
    "official_url": "https://www.tokyo-danshu.or.jp/index.html"
  },
  {
    "id": 412,
    "facility_name": "世田谷区 砧総合支所",
    "address": "東京都世田谷区成城６丁目２−１",
    "lat": 35.6412777,
    "lng": 139.600756,
    "meeting_name": "世田谷砧懇談会",
    "schedule": "",
    "contact_phone": "",
    "prefecture": "東京都",
    "next_date": "",
    "start_time": "",
    "end_time": "",
    "recurrence": "",
    "building_name": "",
    "meeting_type": "通常",
    "official_url": ""
  },
  {
    "id": 451,
    "facility_name": "両国駅前会館",
    "address": "東京都墨田区両国２丁目２０−１２",
    "lat": 35.6963,
    "lng": 139.7932,
    "meeting_name": "墨田第２例会",
    "schedule": "",
    "contact_phone": "",
    "prefecture": "東京都",
    "next_date": "",
    "start_time": "",
    "end_time": "",
    "recurrence": "",
    "building_name": "",
    "meeting_type": "通常",
    "official_url": "https://www.tokyo-danshu.or.jp"
  },
  {
    "id": 404,
    "facility_name": "中央町社会教育館",
    "address": "東京都目黒区中央町２丁目４−１８ 中央町さくらプラザ地下1階",
    "lat": 35.6322333,
    "lng": 139.691941,
    "meeting_name": "目黒懇談会",
    "schedule": "",
    "contact_phone": "",
    "prefecture": "東京都",
    "next_date": "",
    "start_time": "",
    "end_time": "",
    "recurrence": "",
    "building_name": "",
    "meeting_type": "通常",
    "official_url": ""
  },
  {
    "id": 478,
    "facility_name": "中央町社会教育館",
    "address": "東京都目黒区中央町２丁目４−１８ 中央町さくらプラザ地下1階",
    "lat": 35.6322333,
    "lng": 139.691941,
    "meeting_name": "目黒例会",
    "schedule": "",
    "contact_phone": "",
    "prefecture": "東京都",
    "next_date": "",
    "start_time": "",
    "end_time": "",
    "recurrence": "",
    "building_name": "",
    "meeting_type": "通常",
    "official_url": ""
  },
  {
    "id": 405,
    "facility_name": "京王断酒会（ＮＰＯ法人）",
    "address": "東京都調布市布田１丁目２９−４",
    "lat": 35.6533767,
    "lng": 139.5453749,
    "meeting_name": "京王例会",
    "schedule": "",
    "contact_phone": "",
    "prefecture": "東京都",
    "next_date": "",
    "start_time": "",
    "end_time": "",
    "recurrence": "",
    "building_name": "",
    "meeting_type": "通常",
    "official_url": ""
  },
  {
    "id": 42,
    "facility_name": "公益財団法人 井之頭病院",
    "address": "東京都三鷹市上連雀４丁目１４−１",
    "lat": 35.6969059,
    "lng": 139.5578962,
    "meeting_name": "三鷹例会",
    "schedule": "",
    "contact_phone": "",
    "prefecture": "東京都",
    "next_date": "",
    "start_time": "",
    "end_time": "",
    "recurrence": "",
    "building_name": "",
    "meeting_type": "通常",
    "official_url": "https://www.tokyo-danshu.or.jp/index.html"
  },
  {
    "id": 422,
    "facility_name": "北町地域集会所",
    "address": "東京都練馬区北町８丁目２８−１０ 練馬区立北町地域集会所",
    "lat": 35.7677151,
    "lng": 139.6496689,
    "meeting_name": "練馬第２例会",
    "schedule": "",
    "contact_phone": "",
    "prefecture": "東京都",
    "next_date": "",
    "start_time": "",
    "end_time": "",
    "recurrence": "",
    "building_name": "",
    "meeting_type": "通常",
    "official_url": ""
  },
  {
    "id": 409,
    "facility_name": "区民ひろば駒込",
    "address": "東京都豊島区駒込２丁目２−４",
    "lat": 35.7370164,
    "lng": 139.74752,
    "meeting_name": "豊島例会",
    "schedule": "",
    "contact_phone": "",
    "prefecture": "東京都",
    "next_date": "",
    "start_time": "",
    "end_time": "",
    "recurrence": "",
    "building_name": "",
    "meeting_type": "通常",
    "official_url": ""
  },
  {
    "id": 447,
    "facility_name": "十条台区民センター",
    "address": "東京都北区中十条１丁目２−１８",
    "lat": 35.7588,
    "lng": 139.7198,
    "meeting_name": "北第２例会",
    "schedule": "",
    "contact_phone": "",
    "prefecture": "東京都",
    "next_date": "",
    "start_time": "",
    "end_time": "",
    "recurrence": "",
    "building_name": "",
    "meeting_type": "通常",
    "official_url": "https://www.tokyo-danshu.or.jp"
  },
  {
    "id": 423,
    "facility_name": "協働ステーション中央",
    "address": "東京都中央区日本橋小伝馬町５−１",
    "lat": 35.6909163,
    "lng": 139.7770622,
    "meeting_name": "シングルの集い　１",
    "schedule": "",
    "contact_phone": "",
    "prefecture": "東京都",
    "next_date": "",
    "start_time": "",
    "end_time": "",
    "recurrence": "",
    "building_name": "",
    "meeting_type": "シングル",
    "official_url": ""
  },
  {
    "id": 464,
    "facility_name": "協働ステーション中央",
    "address": "東京都中央区日本橋小伝馬町５−１",
    "lat": 35.6878,
    "lng": 139.78,
    "meeting_name": "シングルの集い２",
    "schedule": "",
    "contact_phone": "",
    "prefecture": "東京都",
    "next_date": "",
    "start_time": "",
    "end_time": "",
    "recurrence": "",
    "building_name": "",
    "meeting_type": "通常",
    "official_url": "https://www.tokyo-danshu.or.jp"
  },
  {
    "id": 452,
    "facility_name": "品川区 荏原第五地域センター",
    "address": "東京都品川区二葉１丁目１−１",
    "lat": 35.5957,
    "lng": 139.7133,
    "meeting_name": "品川懇談会",
    "schedule": "",
    "contact_phone": "",
    "prefecture": "東京都",
    "next_date": "",
    "start_time": "",
    "end_time": "",
    "recurrence": "",
    "building_name": "",
    "meeting_type": "通常",
    "official_url": "https://www.tokyo-danshu.or.jp"
  },
  {
    "id": 453,
    "facility_name": "品川区 荏原第五地域センター",
    "address": "東京都品川区二葉１丁目１−１",
    "lat": 35.5957,
    "lng": 139.7133,
    "meeting_name": "品川家族会",
    "schedule": "",
    "contact_phone": "",
    "prefecture": "東京都",
    "next_date": "",
    "start_time": "",
    "end_time": "",
    "recurrence": "",
    "building_name": "",
    "meeting_type": "通常",
    "official_url": "https://www.tokyo-danshu.or.jp"
  },
  {
    "id": 236,
    "facility_name": "多摩市永山複合施設",
    "address": "東京都多摩市永山１丁目５",
    "lat": 35.6280863,
    "lng": 139.4480621,
    "meeting_name": "永山例会",
    "schedule": "19時〜21時",
    "contact_phone": "042-376-2132",
    "prefecture": "東京都",
    "next_date": "",
    "start_time": "",
    "end_time": "",
    "recurrence": "",
    "building_name": "",
    "meeting_type": "通常",
    "official_url": "http://www.tama-danshurengou.jpn.org"
  },
  {
    "id": 415,
    "facility_name": "大久保スポーツプラザ",
    "address": "東京都新宿区大久保３丁目７−４２ 大久保スポーツプラザ",
    "lat": 35.7064806,
    "lng": 139.7019513,
    "meeting_name": "新宿第１例会",
    "schedule": "",
    "contact_phone": "",
    "prefecture": "東京都",
    "next_date": "",
    "start_time": "",
    "end_time": "",
    "recurrence": "",
    "building_name": "",
    "meeting_type": "通常",
    "official_url": ""
  },
  {
    "id": 406,
    "facility_name": "富岡区民館",
    "address": "東京都江東区富岡１丁目１６−１２",
    "lat": 35.671759,
    "lng": 139.7985814,
    "meeting_name": "江東第１例会",
    "schedule": "",
    "contact_phone": "",
    "prefecture": "東京都",
    "next_date": "",
    "start_time": "",
    "end_time": "",
    "recurrence": "",
    "building_name": "",
    "meeting_type": "通常",
    "official_url": ""
  },
  {
    "id": 27,
    "facility_name": "文京区立茗台中学校",
    "address": "東京都文京区春日２丁目９−５",
    "lat": 35.7132763,
    "lng": 139.7409537,
    "meeting_name": "文京例会",
    "schedule": "",
    "contact_phone": "",
    "prefecture": "東京都",
    "next_date": "",
    "start_time": "",
    "end_time": "",
    "recurrence": "",
    "building_name": "",
    "meeting_type": "通常",
    "official_url": "https://www.tokyo-danshu.or.jp/index.html"
  },
  {
    "id": 233,
    "facility_name": "日商岩井国立マンション1F集会場",
    "address": "東京都国立市富士見台３丁目３２−４ 日商岩井国立",
    "lat": 35.686621,
    "lng": 139.4332965,
    "meeting_name": "女性酒害者の集い（「ひまわりの会」）",
    "schedule": "19時〜21時",
    "contact_phone": "090-7245-4226",
    "prefecture": "東京都",
    "next_date": "",
    "start_time": "",
    "end_time": "",
    "recurrence": "",
    "building_name": "",
    "meeting_type": "通常",
    "official_url": "http://www.tama-danshurengou.jpn.org"
  },
  {
    "id": 426,
    "facility_name": "日商岩井国立マンション1F集会場",
    "address": "東京都国立市富士見台３丁目３２−４ 日商岩井国立",
    "lat": 35.686621,
    "lng": 139.4332965,
    "meeting_name": "国立矢川例会",
    "schedule": "",
    "contact_phone": "",
    "prefecture": "東京都",
    "next_date": "",
    "start_time": "",
    "end_time": "",
    "recurrence": "",
    "building_name": "日商岩井国立マンション(1Ｆ集会場)",
    "meeting_type": "通常",
    "official_url": ""
  },
  {
    "id": 446,
    "facility_name": "杉並区立産業商工会館",
    "address": "東京都杉並区阿佐谷南１丁目４７−１７",
    "lat": 35.7047,
    "lng": 139.6364,
    "meeting_name": "杉並懇談会",
    "schedule": "",
    "contact_phone": "",
    "prefecture": "東京都",
    "next_date": "",
    "start_time": "",
    "end_time": "",
    "recurrence": "",
    "building_name": "",
    "meeting_type": "通常",
    "official_url": "https://www.tokyo-danshu.or.jp"
  },
  {
    "id": 457,
    "facility_name": "東京都福祉保健局障害者福祉会館",
    "address": "東京都港区芝５丁目１８−２",
    "lat": 35.6469,
    "lng": 139.7467,
    "meeting_name": "港懇談会",
    "schedule": "",
    "contact_phone": "",
    "prefecture": "東京都",
    "next_date": "",
    "start_time": "",
    "end_time": "",
    "recurrence": "",
    "building_name": "",
    "meeting_type": "通常",
    "official_url": "https://www.tokyo-danshu.or.jp"
  },
  {
    "id": 459,
    "facility_name": "東京都福祉保健局障害者福祉会館",
    "address": "東京都港区芝５丁目１８−２",
    "lat": 35.6469,
    "lng": 139.7467,
    "meeting_name": "ハートボックス",
    "schedule": "",
    "contact_phone": "",
    "prefecture": "東京都",
    "next_date": "",
    "start_time": "13:30",
    "end_time": "15:30",
    "recurrence": "",
    "building_name": "",
    "meeting_type": "通常",
    "official_url": "https://www.tokyo-danshu.or.jp"
  },
  {
    "id": 239,
    "facility_name": "東大和市民センター",
    "address": "東京都東大和市南街５丁目３２",
    "lat": 35.7371714,
    "lng": 139.4315493,
    "meeting_name": "東大和例会",
    "schedule": "19時〜21時",
    "contact_phone": "080-5198-3193",
    "prefecture": "東京都",
    "next_date": "",
    "start_time": "",
    "end_time": "",
    "recurrence": "",
    "building_name": "",
    "meeting_type": "通常",
    "official_url": "http://www.tama-danshurengou.jpn.org"
  },
  {
    "id": 364,
    "facility_name": "東日暮里ふれあい館",
    "address": "東京都荒川区東日暮里１丁目１７−",
    "lat": 35.7300027,
    "lng": 139.7896524,
    "meeting_name": "荒川家族会",
    "schedule": "",
    "contact_phone": "",
    "prefecture": "東京都",
    "next_date": "",
    "start_time": "",
    "end_time": "",
    "recurrence": "",
    "building_name": "１３ 都営東日暮里一丁目アパート１３号棟",
    "meeting_type": "家族",
    "official_url": "https://www.tokyo-danshu.or.jp/index.html"
  },
  {
    "id": 417,
    "facility_name": "根岸社会教育館",
    "address": "東京都台東区根岸５丁目１８−１３",
    "lat": 35.7290503,
    "lng": 139.7904743,
    "meeting_name": "台東例会",
    "schedule": "",
    "contact_phone": "",
    "prefecture": "東京都",
    "next_date": "",
    "start_time": "",
    "end_time": "",
    "recurrence": "",
    "building_name": "",
    "meeting_type": "通常",
    "official_url": ""
  },
  {
    "id": 454,
    "facility_name": "江東区総合区民センター",
    "address": "東京都江東区大島４丁目５−１",
    "lat": 35.6901,
    "lng": 139.8197,
    "meeting_name": "江東家族だけの会",
    "schedule": "",
    "contact_phone": "",
    "prefecture": "東京都",
    "next_date": "",
    "start_time": "",
    "end_time": "",
    "recurrence": "",
    "building_name": "",
    "meeting_type": "通常",
    "official_url": "https://www.tokyo-danshu.or.jp"
  },
  {
    "id": 455,
    "facility_name": "江東区総合区民センター",
    "address": "東京都江東区大島４丁目５−１",
    "lat": 35.6901,
    "lng": 139.8197,
    "meeting_name": "江東第２例会",
    "schedule": "",
    "contact_phone": "",
    "prefecture": "東京都",
    "next_date": "",
    "start_time": "",
    "end_time": "",
    "recurrence": "",
    "building_name": "",
    "meeting_type": "通常",
    "official_url": "https://www.tokyo-danshu.or.jp"
  },
  {
    "id": 458,
    "facility_name": "江東区総合区民センター",
    "address": "東京都江東区大島４丁目５−１",
    "lat": 35.6901,
    "lng": 139.8197,
    "meeting_name": "アメシスト第２例会",
    "schedule": "",
    "contact_phone": "",
    "prefecture": "東京都",
    "next_date": "",
    "start_time": "",
    "end_time": "",
    "recurrence": "",
    "building_name": "",
    "meeting_type": "通常",
    "official_url": "https://www.tokyo-danshu.or.jp"
  },
  {
    "id": 461,
    "facility_name": "江東区総合区民センター",
    "address": "東京都江東区大島４丁目５−１",
    "lat": 35.6901,
    "lng": 139.8197,
    "meeting_name": "本部例会",
    "schedule": "",
    "contact_phone": "",
    "prefecture": "東京都",
    "next_date": "",
    "start_time": "",
    "end_time": "",
    "recurrence": "",
    "building_name": "",
    "meeting_type": "通常",
    "official_url": "https://www.tokyo-danshu.or.jp"
  },
  {
    "id": 420,
    "facility_name": "用賀区民集会所",
    "address": "東京都世田谷区用賀４丁目１０−６",
    "lat": 35.6271257,
    "lng": 139.6315835,
    "meeting_name": "世田谷玉川懇談会",
    "schedule": "",
    "contact_phone": "",
    "prefecture": "東京都",
    "next_date": "",
    "start_time": "",
    "end_time": "",
    "recurrence": "",
    "building_name": "",
    "meeting_type": "通常",
    "official_url": ""
  },
  {
    "id": 297,
    "facility_name": "福生市 輝き市民サポートセンター",
    "address": "東京都福生市福生１０１４−１０",
    "lat": 35.7422623,
    "lng": 139.3276923,
    "meeting_name": "福生酒害相談",
    "schedule": "",
    "contact_phone": "080-4433-9110",
    "prefecture": "東京都",
    "next_date": "",
    "start_time": "",
    "end_time": "",
    "recurrence": "第1・第3水曜",
    "building_name": "",
    "meeting_type": "相談",
    "official_url": "http://www.tama-danshurengou.jpn.org"
  },
  {
    "id": 427,
    "facility_name": "立川市 柴崎学習館",
    "address": "東京都立川市柴崎町２丁目１５−８",
    "lat": 35.694704,
    "lng": 139.4080884,
    "meeting_name": "立川本部例会（家族会あり）",
    "schedule": "第三日曜日 14:00〜16:00",
    "contact_phone": "042-507-8409",
    "prefecture": "東京都",
    "next_date": "",
    "start_time": "14:00",
    "end_time": "16:00",
    "recurrence": "第3日曜",
    "building_name": "",
    "meeting_type": "家族",
    "official_url": ""
  },
  {
    "id": 448,
    "facility_name": "竹の塚地域学習センター",
    "address": "東京都足立区竹の塚２丁目２５−１７",
    "lat": 35.7785,
    "lng": 139.7942,
    "meeting_name": "足立第２例会",
    "schedule": "",
    "contact_phone": "",
    "prefecture": "東京都",
    "next_date": "",
    "start_time": "",
    "end_time": "",
    "recurrence": "",
    "building_name": "",
    "meeting_type": "通常",
    "official_url": "https://www.tokyo-danshu.or.jp"
  },
  {
    "id": 421,
    "facility_name": "練馬区役所本庁舎",
    "address": "東京都練馬区豊玉北６丁目１２−１ 練馬区役所本庁舎 (地図",
    "lat": 35.7357846,
    "lng": 139.6517759,
    "meeting_name": "練馬第１例会",
    "schedule": "",
    "contact_phone": "",
    "prefecture": "東京都",
    "next_date": "",
    "start_time": "",
    "end_time": "",
    "recurrence": "",
    "building_name": "",
    "meeting_type": "通常",
    "official_url": ""
  },
  {
    "id": 462,
    "facility_name": "自立支援センター",
    "address": "東京都調布市布田１丁目２９−４",
    "lat": 35.6508,
    "lng": 139.5706,
    "meeting_name": "京王調布第１懇談会",
    "schedule": "",
    "contact_phone": "",
    "prefecture": "東京都",
    "next_date": "",
    "start_time": "",
    "end_time": "",
    "recurrence": "",
    "building_name": "",
    "meeting_type": "通常",
    "official_url": "https://www.tokyo-danshu.or.jp"
  },
  {
    "id": 463,
    "facility_name": "自立支援センター いばしょ",
    "address": "東京都調布市布田１丁目２９−４",
    "lat": 35.6508,
    "lng": 139.5706,
    "meeting_name": "京王調布第３懇談会",
    "schedule": "",
    "contact_phone": "",
    "prefecture": "東京都",
    "next_date": "",
    "start_time": "",
    "end_time": "",
    "recurrence": "",
    "building_name": "",
    "meeting_type": "通常",
    "official_url": "https://www.tokyo-danshu.or.jp"
  },
  {
    "id": 450,
    "facility_name": "葛飾区 立石地区センター 別館",
    "address": "東京都葛飾区立石３丁目１２−１",
    "lat": 35.735,
    "lng": 139.8502,
    "meeting_name": "葛飾第２例会",
    "schedule": "",
    "contact_phone": "",
    "prefecture": "東京都",
    "next_date": "",
    "start_time": "",
    "end_time": "",
    "recurrence": "",
    "building_name": "",
    "meeting_type": "通常",
    "official_url": "https://www.tokyo-danshu.or.jp"
  },
  {
    "id": 366,
    "facility_name": "西久保コミュニティーセンター",
    "address": "東京都武蔵野市西久保１丁目２３−",
    "lat": 35.7059573,
    "lng": 139.5568025,
    "meeting_name": "西武朝例会",
    "schedule": "",
    "contact_phone": "",
    "prefecture": "東京都",
    "next_date": "",
    "start_time": "",
    "end_time": "",
    "recurrence": "",
    "building_name": "７ 西久保コミュニティセンター",
    "meeting_type": "通常",
    "official_url": "https://www.tokyo-danshu.or.jp/index.html"
  },
  {
    "id": 419,
    "facility_name": "西久保コミュニティーセンター",
    "address": "東京都武蔵野市西久保１丁目２３−",
    "lat": 35.7059573,
    "lng": 139.5568025,
    "meeting_name": "西武例会",
    "schedule": "",
    "contact_phone": "",
    "prefecture": "東京都",
    "next_date": "",
    "start_time": "",
    "end_time": "",
    "recurrence": "",
    "building_name": "７ 西久保コミュニティセンター",
    "meeting_type": "通常",
    "official_url": ""
  },
  {
    "id": 456,
    "facility_name": "西久保コミュニティーセンター",
    "address": "東京都武蔵野市西久保１丁目２３−７",
    "lat": 35.7108,
    "lng": 139.5706,
    "meeting_name": "西武懇談会",
    "schedule": "",
    "contact_phone": "",
    "prefecture": "東京都",
    "next_date": "",
    "start_time": "",
    "end_time": "",
    "recurrence": "",
    "building_name": "",
    "meeting_type": "通常",
    "official_url": "https://www.tokyo-danshu.or.jp"
  },
  {
    "id": 403,
    "facility_name": "障害者福祉センターえみふる",
    "address": "東京都千代田区神田駿河台２丁目５−",
    "lat": 35.6988933,
    "lng": 139.7639165,
    "meeting_name": "千代田例会",
    "schedule": "",
    "contact_phone": "",
    "prefecture": "東京都",
    "next_date": "",
    "start_time": "",
    "end_time": "",
    "recurrence": "",
    "building_name": "２１ 障害者福祉センターえみふる",
    "meeting_type": "通常",
    "official_url": ""
  },
  {
    "id": 439,
    "facility_name": "上河内地区市民センター",
    "address": "栃木県宇都宮市中里町181-3",
    "lat": 36.6830428,
    "lng": 139.9011579,
    "meeting_name": "北部断酒会 氏家支部例会",
    "schedule": "",
    "contact_phone": "",
    "prefecture": "栃木県",
    "next_date": "",
    "start_time": "19:00",
    "end_time": "21:00",
    "recurrence": "毎週土曜",
    "building_name": "",
    "meeting_type": "通常",
    "official_url": "https://dansyu-tochigiken.jp"
  },
  {
    "id": 434,
    "facility_name": "中央生涯学習センター",
    "address": "栃木県宇都宮市中央1-11-13",
    "lat": 36.5577759,
    "lng": 139.8839292,
    "meeting_name": "宇都宮断酒会 中央支部例会",
    "schedule": "",
    "contact_phone": "",
    "prefecture": "栃木県",
    "next_date": "",
    "start_time": "19:00",
    "end_time": "21:00",
    "recurrence": "毎週木曜",
    "building_name": "",
    "meeting_type": "通常",
    "official_url": "https://dansyu-tochigiken.jp"
  },
  {
    "id": 436,
    "facility_name": "大田原市生涯学習センター",
    "address": "栃木県大田原市本町1-3",
    "lat": 36.8711603,
    "lng": 140.0171612,
    "meeting_name": "北部断酒会 大田原支部例会",
    "schedule": "",
    "contact_phone": "",
    "prefecture": "栃木県",
    "next_date": "",
    "start_time": "19:00",
    "end_time": "21:00",
    "recurrence": "毎週水曜（合同例会週除く）",
    "building_name": "",
    "meeting_type": "通常",
    "official_url": "https://dansyu-tochigiken.jp"
  },
  {
    "id": 435,
    "facility_name": "姿川地区市民センター",
    "address": "栃木県宇都宮市西川田町805-1",
    "lat": 36.529596,
    "lng": 139.8490398,
    "meeting_name": "宇都宮断酒会 姿川支部例会",
    "schedule": "",
    "contact_phone": "",
    "prefecture": "栃木県",
    "next_date": "",
    "start_time": "19:00",
    "end_time": "21:00",
    "recurrence": "毎週土曜",
    "building_name": "",
    "meeting_type": "通常",
    "official_url": "https://dansyu-tochigiken.jp"
  },
  {
    "id": 433,
    "facility_name": "平石地区市民センター",
    "address": "栃木県宇都宮市平出町158-1",
    "lat": 36.5715212,
    "lng": 139.9416156,
    "meeting_name": "宇都宮断酒会 平石支部例会",
    "schedule": "",
    "contact_phone": "",
    "prefecture": "栃木県",
    "next_date": "",
    "start_time": "19:00",
    "end_time": "21:00",
    "recurrence": "第1・第3火曜",
    "building_name": "",
    "meeting_type": "通常",
    "official_url": "https://dansyu-tochigiken.jp"
  },
  {
    "id": 440,
    "facility_name": "烏山南公民館",
    "address": "栃木県那須烏山市野上703",
    "lat": 36.6349305,
    "lng": 140.1508523,
    "meeting_name": "北部断酒会 烏山支部例会",
    "schedule": "",
    "contact_phone": "",
    "prefecture": "栃木県",
    "next_date": "",
    "start_time": "19:00",
    "end_time": "21:00",
    "recurrence": "毎週土曜",
    "building_name": "",
    "meeting_type": "通常",
    "official_url": "https://dansyu-tochigiken.jp"
  },
  {
    "id": 442,
    "facility_name": "真岡公民館",
    "address": "栃木県真岡市荒町1201",
    "lat": 36.4392761,
    "lng": 140.0166399,
    "meeting_name": "南部断酒会 真岡支部例会",
    "schedule": "",
    "contact_phone": "",
    "prefecture": "栃木県",
    "next_date": "",
    "start_time": "19:00",
    "end_time": "21:00",
    "recurrence": "毎週土曜",
    "building_name": "",
    "meeting_type": "通常",
    "official_url": "https://dansyu-tochigiken.jp"
  },
  {
    "id": 438,
    "facility_name": "矢板公民館",
    "address": "栃木県矢板市本町5-4",
    "lat": 36.8056007,
    "lng": 139.9224503,
    "meeting_name": "北部断酒会 矢板支部例会",
    "schedule": "",
    "contact_phone": "",
    "prefecture": "栃木県",
    "next_date": "",
    "start_time": "19:00",
    "end_time": "21:00",
    "recurrence": "毎週水曜（合同例会週除く）",
    "building_name": "",
    "meeting_type": "通常",
    "official_url": "https://dansyu-tochigiken.jp"
  },
  {
    "id": 437,
    "facility_name": "西那須野公民館",
    "address": "栃木県那須塩原市太夫塚1-194-78",
    "lat": 36.8847532,
    "lng": 139.9767548,
    "meeting_name": "北部断酒会 那須塩原支部例会",
    "schedule": "",
    "contact_phone": "",
    "prefecture": "栃木県",
    "next_date": "",
    "start_time": "19:00",
    "end_time": "21:00",
    "recurrence": "毎週金曜（合同例会週除く）",
    "building_name": "",
    "meeting_type": "通常",
    "official_url": "https://dansyu-tochigiken.jp"
  },
  {
    "id": 443,
    "facility_name": "青木病院",
    "address": "栃木県足利市本城1-1560",
    "lat": 36.3527186,
    "lng": 139.4529557,
    "meeting_name": "両毛断酒会 足利支部例会",
    "schedule": "",
    "contact_phone": "",
    "prefecture": "栃木県",
    "next_date": "",
    "start_time": "19:00",
    "end_time": "21:00",
    "recurrence": "第1・第3水曜",
    "building_name": "",
    "meeting_type": "通常",
    "official_url": "https://dansyu-tochigiken.jp"
  },
  {
    "id": 441,
    "facility_name": "鹿沼市民情報センター",
    "address": "栃木県鹿沼市文化橋1982-18",
    "lat": 36.5697049,
    "lng": 139.7515117,
    "meeting_name": "西部断酒会 鹿沼支部例会",
    "schedule": "",
    "contact_phone": "",
    "prefecture": "栃木県",
    "next_date": "",
    "start_time": "19:00",
    "end_time": "21:00",
    "recurrence": "毎週木曜",
    "building_name": "",
    "meeting_type": "通常",
    "official_url": "https://dansyu-tochigiken.jp"
  },
  {
    "id": 393,
    "facility_name": "かながわ県民センター",
    "address": "神奈川県横浜市神奈川区鶴屋町２丁目２４−２",
    "lat": 35.4684095,
    "lng": 139.6207449,
    "meeting_name": "合同例会",
    "schedule": "",
    "contact_phone": "",
    "prefecture": "神奈川県",
    "next_date": "",
    "start_time": "",
    "end_time": "",
    "recurrence": "",
    "building_name": "",
    "meeting_type": "通常",
    "official_url": "https://www.shindanren.com"
  },
  {
    "id": 394,
    "facility_name": "かながわ県民センター",
    "address": "神奈川県横浜市神奈川区鶴屋町２丁目２４−２",
    "lat": 35.4684095,
    "lng": 139.6207449,
    "meeting_name": "昼例会",
    "schedule": "",
    "contact_phone": "",
    "prefecture": "神奈川県",
    "next_date": "",
    "start_time": "",
    "end_time": "",
    "recurrence": "",
    "building_name": "",
    "meeting_type": "通常",
    "official_url": "https://www.shindanren.com"
  },
  {
    "id": 395,
    "facility_name": "かながわ県民センター",
    "address": "神奈川県横浜市神奈川区鶴屋町２丁目２４−２",
    "lat": 35.4684095,
    "lng": 139.6207449,
    "meeting_name": "横浜酒害相談",
    "schedule": "",
    "contact_phone": "",
    "prefecture": "神奈川県",
    "next_date": "",
    "start_time": "",
    "end_time": "",
    "recurrence": "",
    "building_name": "",
    "meeting_type": "相談",
    "official_url": "https://www.shindanren.com"
  },
  {
    "id": 387,
    "facility_name": "ひらつか市民活動センター",
    "address": "平塚市見附町1-8 崇善公民館2階",
    "lat": 34.6851886,
    "lng": 135.5065283,
    "meeting_name": "酒害相談",
    "schedule": "",
    "contact_phone": "",
    "prefecture": "神奈川県",
    "next_date": "",
    "start_time": "",
    "end_time": "",
    "recurrence": "",
    "building_name": "ひらつか市民活動センター",
    "meeting_type": "相談",
    "official_url": "https://www.shindanren.com"
  },
  {
    "id": 400,
    "facility_name": "みくるべ病院",
    "address": "神奈川県秦野市三廻部1678",
    "lat": 35.4048412456351,
    "lng": 139.1569433762054,
    "meeting_name": "みくるべ病院院内例会",
    "schedule": "",
    "contact_phone": "",
    "prefecture": "神奈川県",
    "next_date": "",
    "start_time": "",
    "end_time": "",
    "recurrence": "",
    "building_name": "",
    "meeting_type": "通常",
    "official_url": "https://www.shindanren.com"
  },
  {
    "id": 402,
    "facility_name": "南下浦コミュニティセンター チェルSeaみうら",
    "address": "神奈川県三浦市南下浦町上宮田3078",
    "lat": 35.187327774846494,
    "lng": 139.65364353360044,
    "meeting_name": "三浦支部例会",
    "schedule": "",
    "contact_phone": "",
    "prefecture": "神奈川県",
    "next_date": "",
    "start_time": "",
    "end_time": "",
    "recurrence": "",
    "building_name": "",
    "meeting_type": "通常",
    "official_url": "https://www.shindanren.com"
  },
  {
    "id": 384,
    "facility_name": "宮前平２丁目２０−４",
    "address": "神奈川県川崎市宮前区宮前平２丁目２０−",
    "lat": 35.589239,
    "lng": 139.579426,
    "meeting_name": "宮前市民館例会　宮前市民館4階　第１会議室",
    "schedule": "",
    "contact_phone": "",
    "prefecture": "神奈川県",
    "next_date": "",
    "start_time": "",
    "end_time": "",
    "recurrence": "",
    "building_name": "４ 川崎市宮前市民館",
    "meeting_type": "通常",
    "official_url": "https://www.shindanren.com"
  },
  {
    "id": 398,
    "facility_name": "小田原市保健センター",
    "address": "神奈川県小田原市酒匂２丁目３２−１６",
    "lat": 35.268425,
    "lng": 139.1849158,
    "meeting_name": "家族会",
    "schedule": "",
    "contact_phone": "",
    "prefecture": "神奈川県",
    "next_date": "",
    "start_time": "",
    "end_time": "",
    "recurrence": "",
    "building_name": "",
    "meeting_type": "家族",
    "official_url": "https://www.shindanren.com"
  },
  {
    "id": 399,
    "facility_name": "小田原市保健センター",
    "address": "神奈川県小田原市酒匂２丁目３２−１６",
    "lat": 35.268425,
    "lng": 139.1849158,
    "meeting_name": "合同例会",
    "schedule": "",
    "contact_phone": "",
    "prefecture": "神奈川県",
    "next_date": "",
    "start_time": "",
    "end_time": "",
    "recurrence": "",
    "building_name": "",
    "meeting_type": "通常",
    "official_url": "https://www.shindanren.com"
  },
  {
    "id": 382,
    "facility_name": "川崎市幸市民館",
    "address": "神奈川県川崎市幸区戸手本町１丁目１１−２",
    "lat": 35.5443883,
    "lng": 139.6875789,
    "meeting_name": "幸市民館例会",
    "schedule": "",
    "contact_phone": "",
    "prefecture": "神奈川県",
    "next_date": "",
    "start_time": "",
    "end_time": "",
    "recurrence": "",
    "building_name": "２ 川崎市幸市民館",
    "meeting_type": "通常",
    "official_url": "https://www.shindanren.com"
  },
  {
    "id": 537,
    "facility_name": "平塚市見附町1-",
    "address": "平塚市見附町1-",
    "lat": 34.6835402,
    "lng": 135.506503,
    "meeting_name": "平塚例会📱090-6656-4355 保坂(今です!）slowhand-1955-y@outlook.jp",
    "schedule": "",
    "contact_phone": "",
    "prefecture": "神奈川県",
    "next_date": "",
    "start_time": "",
    "end_time": "",
    "recurrence": "",
    "building_name": "ひらつか市民活動センター",
    "meeting_type": "通常",
    "official_url": ""
  },
  {
    "id": 540,
    "facility_name": "平塚市見附町1-",
    "address": "平塚市見附町1-",
    "lat": 34.6835402,
    "lng": 135.506503,
    "meeting_name": "未定)平塚例会📱090-6656-4355 保坂(今です!）slowhand-1955-y@outlook.jp",
    "schedule": "",
    "contact_phone": "",
    "prefecture": "神奈川県",
    "next_date": "",
    "start_time": "",
    "end_time": "",
    "recurrence": "",
    "building_name": "ひらつか市民活動センター",
    "meeting_type": "通常",
    "official_url": ""
  },
  {
    "id": 538,
    "facility_name": "平塚市見附町１−",
    "address": "平塚市見附町１−",
    "lat": 34.6815973,
    "lng": 135.5064694,
    "meeting_name": "相談·質問📱090-6656-4355保坂(今です!）slowhand-1955-y@outlook.jp",
    "schedule": "",
    "contact_phone": "",
    "prefecture": "神奈川県",
    "next_date": "",
    "start_time": "",
    "end_time": "",
    "recurrence": "",
    "building_name": "ひらつか市民活動センター",
    "meeting_type": "相談",
    "official_url": ""
  },
  {
    "id": 539,
    "facility_name": "平塚市見附町１−",
    "address": "平塚市見附町１−",
    "lat": 34.6815973,
    "lng": 135.5064694,
    "meeting_name": "相談·質問📱090-6656-4355 保坂(今です!）slowhand-1955-y@outlook.jp",
    "schedule": "",
    "contact_phone": "",
    "prefecture": "神奈川県",
    "next_date": "",
    "start_time": "",
    "end_time": "",
    "recurrence": "",
    "building_name": "ひらつか市民活動センター",
    "meeting_type": "相談",
    "official_url": ""
  },
  {
    "id": 80,
    "facility_name": "戸塚地区センター",
    "address": "神奈川県横浜市戸塚区戸塚町１２７ 横浜市戸塚センター",
    "lat": 35.3979389,
    "lng": 139.5326778,
    "meeting_name": "戸塚支部",
    "schedule": "",
    "contact_phone": "",
    "prefecture": "神奈川県",
    "next_date": "",
    "start_time": "",
    "end_time": "",
    "recurrence": "",
    "building_name": "",
    "meeting_type": "通常",
    "official_url": "https://www.shindanren.com"
  },
  {
    "id": 396,
    "facility_name": "明治市民センター",
    "address": "神奈川県藤沢市辻堂新町１丁目１１−２３ 藤沢市消防局南消防署明治出張所",
    "lat": 35.3402371,
    "lng": 139.4493101,
    "meeting_name": "家族会",
    "schedule": "",
    "contact_phone": "",
    "prefecture": "神奈川県",
    "next_date": "",
    "start_time": "",
    "end_time": "",
    "recurrence": "",
    "building_name": "",
    "meeting_type": "家族",
    "official_url": "https://www.shindanren.com"
  },
  {
    "id": 73,
    "facility_name": "横浜市戸塚公会堂",
    "address": "神奈川県横浜市戸塚区戸塚町１２７ 横浜市戸塚センター",
    "lat": 35.3979389,
    "lng": 139.5326778,
    "meeting_name": "戸塚地区家族会",
    "schedule": "",
    "contact_phone": "",
    "prefecture": "神奈川県",
    "next_date": "",
    "start_time": "",
    "end_time": "",
    "recurrence": "",
    "building_name": "",
    "meeting_type": "通常",
    "official_url": "https://www.shindanren.com"
  },
  {
    "id": 381,
    "facility_name": "横浜市戸塚公会堂",
    "address": "〒244-",
    "lat": 35.3980292,
    "lng": 139.532493,
    "meeting_name": "戸塚地区家族会",
    "schedule": "",
    "contact_phone": "",
    "prefecture": "神奈川県",
    "next_date": "",
    "start_time": "",
    "end_time": "",
    "recurrence": "",
    "building_name": "0003 神奈川県横浜市戸塚区戸塚町１２７ 横浜市戸塚センター",
    "meeting_type": "家族",
    "official_url": "https://www.shindanren.com"
  },
  {
    "id": 397,
    "facility_name": "横須賀市保健所",
    "address": "神奈川県横須賀市西逸見町１丁目１−３８−１１",
    "lat": 35.2842547,
    "lng": 139.6521476,
    "meeting_name": "中央支部例会",
    "schedule": "",
    "contact_phone": "",
    "prefecture": "神奈川県",
    "next_date": "",
    "start_time": "",
    "end_time": "",
    "recurrence": "",
    "building_name": "",
    "meeting_type": "通常",
    "official_url": "https://www.shindanren.com"
  },
  {
    "id": 81,
    "facility_name": "泉区社会福祉協議会",
    "address": "神奈川県横浜市泉区和泉中央南５丁目４−１３",
    "lat": 35.4150977,
    "lng": 139.4870634,
    "meeting_name": "泉支部",
    "schedule": "",
    "contact_phone": "",
    "prefecture": "神奈川県",
    "next_date": "",
    "start_time": "",
    "end_time": "",
    "recurrence": "",
    "building_name": "",
    "meeting_type": "通常",
    "official_url": "https://www.shindanren.com"
  },
  {
    "id": 126,
    "facility_name": "神奈川県三浦合同庁舎",
    "address": "神奈川県三浦市三崎町六合３２−３２",
    "lat": 35.1569734,
    "lng": 139.6387912,
    "meeting_name": "酒害相談（三浦）",
    "schedule": "",
    "contact_phone": "",
    "prefecture": "神奈川県",
    "next_date": "",
    "start_time": "",
    "end_time": "",
    "recurrence": "",
    "building_name": "",
    "meeting_type": "相談",
    "official_url": "https://www.shindanren.com"
  },
  {
    "id": 170,
    "facility_name": "茅ヶ崎市 男女共同参画推進センター「いこりあ」",
    "address": "神奈川県茅ヶ崎市新栄町１２−１２ 茅ヶ崎トラスト",
    "lat": 35.332342,
    "lng": 139.4046304,
    "meeting_name": "酒なし人生研究会",
    "schedule": "",
    "contact_phone": "",
    "prefecture": "神奈川県",
    "next_date": "",
    "start_time": "",
    "end_time": "",
    "recurrence": "",
    "building_name": "",
    "meeting_type": "通常",
    "official_url": "https://www.shindanren.com"
  },
  {
    "id": 401,
    "facility_name": "鎌倉市福祉センター",
    "address": "神奈川県鎌倉市御成町２０−２１",
    "lat": 35.3170594,
    "lng": 139.5462249,
    "meeting_name": "酒害相談",
    "schedule": "",
    "contact_phone": "",
    "prefecture": "神奈川県",
    "next_date": "",
    "start_time": "",
    "end_time": "",
    "recurrence": "",
    "building_name": "",
    "meeting_type": "相談",
    "official_url": "https://www.shindanren.com"
  },
  {
    "id": 2,
    "facility_name": "品川区 荏原第五地域センター",
    "address": "東京都品川区二葉１丁目１−１−２",
    "lat": 35.6082279,
    "lng": 139.7259931,
    "meeting_name": "品川例会",
    "schedule": "",
    "contact_phone": "",
    "prefecture": "東京都",
    "next_date": "2026-06-02",
    "start_time": "18:30",
    "end_time": "20:30",
    "recurrence": "",
    "building_name": "",
    "meeting_type": "通常",
    "official_url": "https://www.tokyo-danshu.or.jp/index.html"
  },
  {
    "id": 6,
    "facility_name": "東京都福祉保健局障害者福祉会館",
    "address": "東京都港区芝５丁目１８−２ 都営芝五丁目",
    "lat": 35.6482637,
    "lng": 139.7483749,
    "meeting_name": "港例会",
    "schedule": "",
    "contact_phone": "",
    "prefecture": "東京都",
    "next_date": "2026-06-02",
    "start_time": "13:30",
    "end_time": "15:30",
    "recurrence": "",
    "building_name": "",
    "meeting_type": "通常",
    "official_url": "https://www.tokyo-danshu.or.jp/index.html"
  },
  {
    "id": 26,
    "facility_name": "十条台区民センター",
    "address": "東京都北区中十条１丁目２−１８",
    "lat": 35.7576949,
    "lng": 139.729642,
    "meeting_name": "北第１例会",
    "schedule": "",
    "contact_phone": "",
    "prefecture": "東京都",
    "next_date": "2026-06-03",
    "start_time": "18:30",
    "end_time": "20:30",
    "recurrence": "",
    "building_name": "",
    "meeting_type": "通常",
    "official_url": "https://www.tokyo-danshu.or.jp/index.html"
  },
  {
    "id": 34,
    "facility_name": "協働ステーション中央",
    "address": "東京都中央区日本橋小伝馬町５−１",
    "lat": 35.6909163,
    "lng": 139.7770622,
    "meeting_name": "中央例会",
    "schedule": "",
    "contact_phone": "",
    "prefecture": "東京都",
    "next_date": "2026-06-03",
    "start_time": "18:30",
    "end_time": "20:30",
    "recurrence": "",
    "building_name": "",
    "meeting_type": "通常",
    "official_url": "https://www.tokyo-danshu.or.jp/index.html"
  },
  {
    "id": 112,
    "facility_name": "いきいきセンター金沢",
    "address": "いきいきセンター金沢",
    "lat": 35.3393265,
    "lng": 139.621596,
    "meeting_name": "金沢合同例会",
    "schedule": "",
    "contact_phone": "",
    "prefecture": "神奈川県",
    "next_date": "2026-06-03",
    "start_time": "19:00",
    "end_time": "20:15",
    "recurrence": "",
    "building_name": "",
    "meeting_type": "通常",
    "official_url": "https://www.shindanren.com"
  },
  {
    "id": 117,
    "facility_name": "小田原市保健センター",
    "address": "神奈川県小田原市酒匂２丁目３２−１６",
    "lat": 35.268425,
    "lng": 139.1849158,
    "meeting_name": "例会",
    "schedule": "",
    "contact_phone": "",
    "prefecture": "神奈川県",
    "next_date": "2026-06-03",
    "start_time": "19:00",
    "end_time": "21:00",
    "recurrence": "",
    "building_name": "",
    "meeting_type": "通常",
    "official_url": "https://www.shindanren.com"
  },
  {
    "id": 92,
    "facility_name": "川崎区保健福祉センターパレール5階",
    "address": "川崎区保健福祉センターパレール5階",
    "lat": 35.5296778,
    "lng": 139.7038514,
    "meeting_name": "川崎例会",
    "schedule": "",
    "contact_phone": "",
    "prefecture": "神奈川県",
    "next_date": "2026-06-03",
    "start_time": "19:00",
    "end_time": "20:45",
    "recurrence": "",
    "building_name": "",
    "meeting_type": "通常",
    "official_url": "https://www.shindanren.com"
  },
  {
    "id": 74,
    "facility_name": "横浜市泥亀地域ケアプラザ",
    "address": "神奈川県横浜市金沢区泥亀１丁目２１−５",
    "lat": 35.3391896,
    "lng": 139.6217448,
    "meeting_name": "金沢支部",
    "schedule": "",
    "contact_phone": "",
    "prefecture": "神奈川県",
    "next_date": "2026-06-03",
    "start_time": "19:00",
    "end_time": "20:15",
    "recurrence": "",
    "building_name": "",
    "meeting_type": "通常",
    "official_url": "https://www.shindanren.com"
  },
  {
    "id": 242,
    "facility_name": "日野市 中央公民館",
    "address": "東京都日野市日野本町７丁目５−２３",
    "lat": 35.6794963,
    "lng": 139.4001215,
    "meeting_name": "日野例会",
    "schedule": "第一木曜日 19:00〜21:00",
    "contact_phone": "090-6378-9350",
    "prefecture": "東京都",
    "next_date": "2026-06-04",
    "start_time": "19:00",
    "end_time": "21:00",
    "recurrence": "第1木曜",
    "building_name": "",
    "meeting_type": "通常",
    "official_url": "http://www.tama-danshurengou.jpn.org"
  },
  {
    "id": 249,
    "facility_name": "青梅市福祉センター",
    "address": "東京都青梅市東青梅１丁目１７７−３",
    "lat": 35.7875224,
    "lng": 139.2741844,
    "meeting_name": "青梅例会",
    "schedule": "第一木曜日（昼）14:00〜16:00",
    "contact_phone": "080-3093-8905",
    "prefecture": "東京都",
    "next_date": "2026-06-04",
    "start_time": "14:00",
    "end_time": "16:00",
    "recurrence": "第1木曜",
    "building_name": "",
    "meeting_type": "通常",
    "official_url": "http://www.tama-danshurengou.jpn.org"
  },
  {
    "id": 98,
    "facility_name": "ひらつか市民活動センター",
    "address": "平塚市見附町1-8  崇善公民館2階",
    "lat": 35.3290681,
    "lng": 139.3440372,
    "meeting_name": "平塚例会",
    "schedule": "",
    "contact_phone": "",
    "prefecture": "神奈川県",
    "next_date": "2026-06-04",
    "start_time": "18:45",
    "end_time": "20:30",
    "recurrence": "毎月 第1木曜",
    "building_name": "",
    "meeting_type": "通常",
    "official_url": "https://www.shindanren.com"
  },
  {
    "id": 72,
    "facility_name": "横浜市二俣川地域ケアプラザ",
    "address": "神奈川県横浜市旭区二俣川２丁目５０−１４ コプレ二俣川 商業・業務棟 6F",
    "lat": 35.4631654,
    "lng": 139.5326339,
    "meeting_name": "旭支部※多目的ホール",
    "schedule": "",
    "contact_phone": "",
    "prefecture": "神奈川県",
    "next_date": "2026-06-04",
    "start_time": "18:30",
    "end_time": "20:00",
    "recurrence": "",
    "building_name": "",
    "meeting_type": "通常",
    "official_url": "https://www.shindanren.com"
  },
  {
    "id": 253,
    "facility_name": "多摩市立 関戸公民館",
    "address": "東京都多摩市関戸４丁目７２",
    "lat": 35.6495785,
    "lng": 139.4469976,
    "meeting_name": "多摩市桜ケ丘例会",
    "schedule": "第一金曜日 19:00〜21:00",
    "contact_phone": "042-376-2132",
    "prefecture": "東京都",
    "next_date": "2026-06-05",
    "start_time": "19:00",
    "end_time": "21:00",
    "recurrence": "第1金曜",
    "building_name": "",
    "meeting_type": "通常",
    "official_url": "http://www.tama-danshurengou.jpn.org"
  },
  {
    "id": 16,
    "facility_name": "竹の塚地域学習センター",
    "address": "東京都足立区竹の塚２丁目２５−１７",
    "lat": 35.7925227,
    "lng": 139.7950596,
    "meeting_name": "足立第１例会",
    "schedule": "",
    "contact_phone": "",
    "prefecture": "東京都",
    "next_date": "2026-06-05",
    "start_time": "18:30",
    "end_time": "20:30",
    "recurrence": "",
    "building_name": "",
    "meeting_type": "通常",
    "official_url": "https://www.tokyo-danshu.or.jp/index.html"
  },
  {
    "id": 90,
    "facility_name": "川崎市中原市民館",
    "address": "神奈川県川崎市中原区新丸子東３丁目１１００−１２",
    "lat": 35.5748787,
    "lng": 139.6604338,
    "meeting_name": "中原市民館例会",
    "schedule": "",
    "contact_phone": "",
    "prefecture": "神奈川県",
    "next_date": "2026-06-05",
    "start_time": "19:00",
    "end_time": "20:45",
    "recurrence": "",
    "building_name": "",
    "meeting_type": "通常",
    "official_url": "https://www.shindanren.com"
  },
  {
    "id": 75,
    "facility_name": "横浜市栄区社会福祉協議会（社会福祉法人）",
    "address": "神奈川県横浜市栄区桂町２７９−２９ 福祉保健活動拠点",
    "lat": 35.3635657,
    "lng": 139.5537725,
    "meeting_name": "栄支部",
    "schedule": "",
    "contact_phone": "",
    "prefecture": "神奈川県",
    "next_date": "2026-06-05",
    "start_time": "18:00",
    "end_time": "19:30",
    "recurrence": "",
    "building_name": "",
    "meeting_type": "通常",
    "official_url": "https://www.shindanren.com"
  },
  {
    "id": 116,
    "facility_name": "横須賀市 田浦コミュニティセンター",
    "address": "神奈川県横須賀市船越町６丁目７７ 横須賀市田浦行政センター",
    "lat": 35.301248,
    "lng": 139.629022,
    "meeting_name": "北部田浦例会",
    "schedule": "",
    "contact_phone": "",
    "prefecture": "神奈川県",
    "next_date": "2026-06-05",
    "start_time": "19:00",
    "end_time": "20:15",
    "recurrence": "",
    "building_name": "",
    "meeting_type": "通常",
    "official_url": "https://www.shindanren.com"
  },
  {
    "id": 256,
    "facility_name": "船橋市 東部公民館",
    "address": "千葉県船橋市前原西２丁目２１−２１",
    "lat": 35.6927812,
    "lng": 140.0227357,
    "meeting_name": "船橋例会",
    "schedule": "",
    "contact_phone": "",
    "prefecture": "千葉県",
    "next_date": "2026-06-06",
    "start_time": "16:30",
    "end_time": "17:30",
    "recurrence": "毎月 第1土曜",
    "building_name": "",
    "meeting_type": "通常",
    "official_url": "https://sites.google.com/view/chibadanshu/"
  },
  {
    "id": 36,
    "facility_name": "葛飾区 立石地区センター 別館",
    "address": "東京都葛飾区立石３丁目１２−１",
    "lat": 35.7400582,
    "lng": 139.8436094,
    "meeting_name": "葛飾第１例会",
    "schedule": "",
    "contact_phone": "",
    "prefecture": "東京都",
    "next_date": "2026-06-06",
    "start_time": "18:30",
    "end_time": "20:30",
    "recurrence": "",
    "building_name": "",
    "meeting_type": "通常",
    "official_url": "https://www.tokyo-danshu.or.jp/index.html"
  },
  {
    "id": 123,
    "facility_name": "福祉会館",
    "address": "神奈川県逗子市桜山５丁目３２ 福祉会館",
    "lat": 35.2947084,
    "lng": 139.5937798,
    "meeting_name": "逗子本部例会",
    "schedule": "",
    "contact_phone": "",
    "prefecture": "神奈川県",
    "next_date": "2026-06-06",
    "start_time": "13:30",
    "end_time": "15:30",
    "recurrence": "",
    "building_name": "",
    "meeting_type": "通常",
    "official_url": "https://www.shindanren.com"
  },
  {
    "id": 101,
    "facility_name": "秦野市地域生活支援センター ぱれっと・はだの",
    "address": "秦野市地域生活支援センター 〃ぱれっと・はだの〃 1階 地域交流室・秦野市本町2-7-25",
    "lat": 35.3706685,
    "lng": 139.2289079,
    "meeting_name": "秦野例会",
    "schedule": "",
    "contact_phone": "",
    "prefecture": "神奈川県",
    "next_date": "2026-06-06",
    "start_time": "14:15",
    "end_time": "15:45",
    "recurrence": "",
    "building_name": "",
    "meeting_type": "通常",
    "official_url": "https://www.shindanren.com"
  },
  {
    "id": 171,
    "facility_name": "茅ヶ崎市民活動サポートセンター",
    "address": "神奈川県茅ヶ崎市茅ヶ崎３丁目２−７ 茅ヶ崎市民活動サポートセンター",
    "lat": 35.3371205,
    "lng": 139.4038003,
    "meeting_name": "例会",
    "schedule": "",
    "contact_phone": "",
    "prefecture": "神奈川県",
    "next_date": "2026-06-06",
    "start_time": "18:45",
    "end_time": "20:30",
    "recurrence": "",
    "building_name": "",
    "meeting_type": "通常",
    "official_url": "https://www.shindanren.com"
  },
  {
    "id": 102,
    "facility_name": "オンライン",
    "address": "オンライン",
    "lat": 35.4913535,
    "lng": 139.284143,
    "meeting_name": "オンライン例会",
    "schedule": "",
    "contact_phone": "",
    "prefecture": "神奈川県",
    "next_date": "2026-06-07",
    "start_time": "18:00",
    "end_time": "20:00",
    "recurrence": "",
    "building_name": "",
    "meeting_type": "通常",
    "official_url": "https://www.shindanren.com"
  },
  {
    "id": 76,
    "facility_name": "横浜市もえぎ野地域ケアプラザ",
    "address": "神奈川県横浜市青葉区もえぎ野４−２",
    "lat": 35.5449101,
    "lng": 139.5235562,
    "meeting_name": "青葉支部",
    "schedule": "",
    "contact_phone": "",
    "prefecture": "神奈川県",
    "next_date": "2026-06-08",
    "start_time": "18:30",
    "end_time": "20:00",
    "recurrence": "毎月 第1月曜",
    "building_name": "",
    "meeting_type": "通常",
    "official_url": "https://www.shindanren.com"
  },
  {
    "id": 250,
    "facility_name": "小平市 小川西町公民館",
    "address": "東京都小平市小川西町４丁目１０−１３",
    "lat": 35.7351364,
    "lng": 139.4617911,
    "meeting_name": "小平例会",
    "schedule": "第二火曜日 19:00〜21:00",
    "contact_phone": "042-935-3772",
    "prefecture": "東京都",
    "next_date": "2026-06-09",
    "start_time": "19:00",
    "end_time": "21:00",
    "recurrence": "第2火曜",
    "building_name": "",
    "meeting_type": "通常",
    "official_url": "http://www.tama-danshurengou.jpn.org"
  },
  {
    "id": 93,
    "facility_name": "川崎市麻生区保健福祉センター",
    "address": "神奈川県川崎市麻生区万福寺１丁目５−１",
    "lat": 35.6037732,
    "lng": 139.5058391,
    "meeting_name": "麻生例会",
    "schedule": "",
    "contact_phone": "",
    "prefecture": "神奈川県",
    "next_date": "2026-06-09",
    "start_time": "19:00",
    "end_time": "20:45",
    "recurrence": "",
    "building_name": "",
    "meeting_type": "通常",
    "official_url": "https://www.shindanren.com"
  },
  {
    "id": 110,
    "facility_name": "横須賀市保健所",
    "address": "神奈川県横須賀市西逸見町１丁目１−３８−１１",
    "lat": 35.2842547,
    "lng": 139.6521476,
    "meeting_name": "本部例会",
    "schedule": "",
    "contact_phone": "",
    "prefecture": "神奈川県",
    "next_date": "2026-06-09",
    "start_time": "19:00",
    "end_time": "20:15",
    "recurrence": "",
    "building_name": "",
    "meeting_type": "通常",
    "official_url": "https://www.shindanren.com"
  },
  {
    "id": 145,
    "facility_name": "さいたま市生涯学習センター",
    "address": "さいたま市大宮区桜木町1-10-18  ｼｰﾉ大宮ｾﾝﾀｰﾌﾟﾗｻﾞ8F",
    "lat": 35.9043394,
    "lng": 139.6205317,
    "meeting_name": "さいたま市大宮区桜木例会",
    "schedule": "",
    "contact_phone": "",
    "prefecture": "埼玉県",
    "next_date": "2026-06-10",
    "start_time": "19:00",
    "end_time": "20:30",
    "recurrence": "",
    "building_name": "",
    "meeting_type": "通常",
    "official_url": "https://www.saitama-danshu.or.jp/index.html"
  },
  {
    "id": 67,
    "facility_name": "シーノ大宮サウスウィング",
    "address": "埼玉県さいたま市大宮区桜木町１丁目１０−１７",
    "lat": 35.90489,
    "lng": 139.6189521,
    "meeting_name": "さいたま例会",
    "schedule": "",
    "contact_phone": "",
    "prefecture": "埼玉県",
    "next_date": "2026-06-10",
    "start_time": "19:00",
    "end_time": "20:30",
    "recurrence": "",
    "building_name": "",
    "meeting_type": "通常",
    "official_url": "https://www.saitama-danshu.or.jp/index.html"
  },
  {
    "id": 247,
    "facility_name": "立川市社会福祉協議会",
    "address": "東京都立川市富士見町２丁目３６−４７",
    "lat": 35.7012732,
    "lng": 139.4019165,
    "meeting_name": "立川酒害相談",
    "schedule": "",
    "contact_phone": "",
    "prefecture": "東京都",
    "next_date": "2026-06-10",
    "start_time": "13:00",
    "end_time": "16:00",
    "recurrence": "",
    "building_name": "",
    "meeting_type": "相談",
    "official_url": "http://www.tama-danshurengou.jpn.org"
  },
  {
    "id": 111,
    "facility_name": "久里浜医療センター1階病棟",
    "address": "神奈川県横須賀市野比5-3-1",
    "lat": 35.2138991,
    "lng": 139.7192223,
    "meeting_name": "久里浜ガイダンス",
    "schedule": "",
    "contact_phone": "",
    "prefecture": "神奈川県",
    "next_date": "2026-06-10",
    "start_time": "19:00",
    "end_time": "20:00",
    "recurrence": "",
    "building_name": "",
    "meeting_type": "通常",
    "official_url": "https://www.shindanren.com"
  },
  {
    "id": 45,
    "facility_name": "中野区社会福祉会館 スマイルなかの",
    "address": "東京都中野区中野５丁目６８−７",
    "lat": 35.7091842,
    "lng": 139.6652819,
    "meeting_name": "中野例会",
    "schedule": "",
    "contact_phone": "",
    "prefecture": "東京都",
    "next_date": "2026-06-11",
    "start_time": "18:30",
    "end_time": "20:30",
    "recurrence": "",
    "building_name": "",
    "meeting_type": "通常",
    "official_url": "https://www.tokyo-danshu.or.jp/index.html"
  },
  {
    "id": 246,
    "facility_name": "昭島市 昭和会館",
    "address": "東京都昭島市松原町１丁目２−２５",
    "lat": 35.7125926,
    "lng": 139.3577752,
    "meeting_name": "昭島例会",
    "schedule": "第二木曜日 19:00〜21:00",
    "contact_phone": "080-3434-6185",
    "prefecture": "東京都",
    "next_date": "2026-06-11",
    "start_time": "19:00",
    "end_time": "21:00",
    "recurrence": "第2木曜",
    "building_name": "昭和会館１F休養室",
    "meeting_type": "通常",
    "official_url": "http://www.tama-danshurengou.jpn.org"
  },
  {
    "id": 108,
    "facility_name": "藤沢市湘南台文化センター",
    "address": "神奈川県藤沢市湘南台１丁目８",
    "lat": 35.3947681,
    "lng": 139.4688468,
    "meeting_name": "湘南台例会",
    "schedule": "",
    "contact_phone": "",
    "prefecture": "神奈川県",
    "next_date": "2026-06-11",
    "start_time": "19:00",
    "end_time": "21:00",
    "recurrence": "",
    "building_name": "",
    "meeting_type": "通常",
    "official_url": "https://www.shindanren.com"
  },
  {
    "id": 87,
    "facility_name": "高津区役所地域みまもり支援センター（福祉事務所・保健所支所）",
    "address": "神奈川県川崎市高津区下作延２丁目８−１",
    "lat": 35.5995612,
    "lng": 139.6080924,
    "meeting_name": "高津例会",
    "schedule": "",
    "contact_phone": "",
    "prefecture": "神奈川県",
    "next_date": "2026-06-11",
    "start_time": "19:00",
    "end_time": "20:45",
    "recurrence": "",
    "building_name": "",
    "meeting_type": "通常",
    "official_url": "https://www.shindanren.com"
  },
  {
    "id": 416,
    "facility_name": "東日暮里ふれあい館",
    "address": "東京都荒川区東日暮里１丁目１７−",
    "lat": 35.7300027,
    "lng": 139.7896524,
    "meeting_name": "荒川懇談会",
    "schedule": "",
    "contact_phone": "",
    "prefecture": "東京都",
    "next_date": "2026-06-12",
    "start_time": "19:00",
    "end_time": "20:30",
    "recurrence": "",
    "building_name": "１３ 都営東日暮里一丁目アパート１３号棟",
    "meeting_type": "通常",
    "official_url": ""
  },
  {
    "id": 32,
    "facility_name": "練馬区立男女共同参画センターえーる",
    "address": "練馬区立男女共同参画センターえーる",
    "lat": 35.7451911,
    "lng": 139.6015934,
    "meeting_name": "練馬石神井懇談会",
    "schedule": "",
    "contact_phone": "",
    "prefecture": "東京都",
    "next_date": "2026-06-12",
    "start_time": "18:30",
    "end_time": "20:30",
    "recurrence": "",
    "building_name": "",
    "meeting_type": "通常",
    "official_url": "https://www.tokyo-danshu.or.jp/index.html"
  },
  {
    "id": 62,
    "facility_name": "さいたま市市民活動サポートセンター",
    "address": "埼玉県さいたま市浦和区東高砂町１１−１",
    "lat": 35.858568,
    "lng": 139.6590796,
    "meeting_name": "さいたま例会",
    "schedule": "",
    "contact_phone": "",
    "prefecture": "埼玉県",
    "next_date": "2026-06-13",
    "start_time": "17:00",
    "end_time": "18:15",
    "recurrence": "",
    "building_name": "",
    "meeting_type": "通常",
    "official_url": "https://www.saitama-danshu.or.jp/index.html"
  },
  {
    "id": 69,
    "facility_name": "浦和コミュニティセンター",
    "address": "埼玉県さいたま市東浦和区高砂１１−１",
    "lat": 35.8574923,
    "lng": 139.6496729,
    "meeting_name": "さいたま例会",
    "schedule": "",
    "contact_phone": "",
    "prefecture": "埼玉県",
    "next_date": "2026-06-13",
    "start_time": "19:00",
    "end_time": "20:30",
    "recurrence": "",
    "building_name": "",
    "meeting_type": "通常",
    "official_url": "https://www.saitama-danshu.or.jp/index.html"
  },
  {
    "id": 143,
    "facility_name": "浦和コミュニティセンター",
    "address": "さいたま市浦和区東高砂町11-1 　浦和",
    "lat": 35.858568,
    "lng": 139.6590796,
    "meeting_name": "さいたま市浦和区東高砂例会",
    "schedule": "",
    "contact_phone": "",
    "prefecture": "埼玉県",
    "next_date": "2026-06-13",
    "start_time": "19:00",
    "end_time": "20:30",
    "recurrence": "",
    "building_name": "",
    "meeting_type": "通常",
    "official_url": "https://www.saitama-danshu.or.jp/index.html"
  },
  {
    "id": 71,
    "facility_name": "かながわ県民センター",
    "address": "神奈川県横浜市神奈川区鶴屋町２丁目２４−２",
    "lat": 35.4684095,
    "lng": 139.6207449,
    "meeting_name": "アメシスト例会(女性限定)",
    "schedule": "",
    "contact_phone": "",
    "prefecture": "神奈川県",
    "next_date": "2026-06-13",
    "start_time": "18:00",
    "end_time": "20:30",
    "recurrence": "",
    "building_name": "",
    "meeting_type": "通常",
    "official_url": "https://www.shindanren.com"
  },
  {
    "id": 172,
    "facility_name": "茅ヶ崎市 男女共同参画推進センター「いこりあ」",
    "address": "神奈川県茅ヶ崎市新栄町１２−１２ 茅ヶ崎トラスト",
    "lat": 35.332342,
    "lng": 139.4046304,
    "meeting_name": "こころの泉（家族会）",
    "schedule": "",
    "contact_phone": "",
    "prefecture": "神奈川県",
    "next_date": "2026-06-13",
    "start_time": "13:30",
    "end_time": "15:30",
    "recurrence": "",
    "building_name": "",
    "meeting_type": "通常",
    "official_url": "https://www.shindanren.com"
  },
  {
    "id": 167,
    "facility_name": "秩父勤労者福祉センター",
    "address": "秩父市上宮地町27-5",
    "lat": 36.0026892,
    "lng": 139.0906726,
    "meeting_name": "秩父市上宮地例会",
    "schedule": "",
    "contact_phone": "",
    "prefecture": "埼玉県",
    "next_date": "2026-06-14",
    "start_time": "13:00",
    "end_time": "15:00",
    "recurrence": "",
    "building_name": "",
    "meeting_type": "通常",
    "official_url": "https://www.saitama-danshu.or.jp/index.html"
  },
  {
    "id": 9,
    "facility_name": "経堂地区会館",
    "address": "東京都世田谷区経堂３丁目３７−１３",
    "lat": 35.651765,
    "lng": 139.632168,
    "meeting_name": "世田谷例会",
    "schedule": "",
    "contact_phone": "",
    "prefecture": "東京都",
    "next_date": "2026-06-14",
    "start_time": "14:00",
    "end_time": "16:00",
    "recurrence": "",
    "building_name": "",
    "meeting_type": "通常",
    "official_url": "https://www.tokyo-danshu.or.jp/index.html"
  },
  {
    "id": 38,
    "facility_name": "戸塚地域センター",
    "address": "東京都新宿区高田馬場２丁目１８−１ 新宿区戸塚特別出張所等区民施設",
    "lat": 35.7144575,
    "lng": 139.7051045,
    "meeting_name": "新宿第２例会",
    "schedule": "",
    "contact_phone": "",
    "prefecture": "東京都",
    "next_date": "2026-06-15",
    "start_time": "18:00",
    "end_time": "19:30",
    "recurrence": "",
    "building_name": "",
    "meeting_type": "通常",
    "official_url": "https://www.tokyo-danshu.or.jp/index.html"
  },
  {
    "id": 248,
    "facility_name": "国分寺市 本多公民館",
    "address": "東京都国分寺市本多１丁目７−１",
    "lat": 35.7053251,
    "lng": 139.4825249,
    "meeting_name": "国分寺例会",
    "schedule": "第三水曜日 19:00〜21:00",
    "contact_phone": "042-935-3772",
    "prefecture": "東京都",
    "next_date": "2026-06-17",
    "start_time": "19:00",
    "end_time": "21:00",
    "recurrence": "第3水曜",
    "building_name": "",
    "meeting_type": "通常",
    "official_url": "https://www.tokyo-danshu.or.jp/index.html"
  },
  {
    "id": 241,
    "facility_name": "立川市 柴崎学習館",
    "address": "東京都立川市柴崎町２丁目１５−８",
    "lat": 35.694704,
    "lng": 139.4080884,
    "meeting_name": "立川第二例会",
    "schedule": "第三木曜日 19:00〜21:00",
    "contact_phone": "042-507-8409",
    "prefecture": "東京都",
    "next_date": "2026-06-18",
    "start_time": "19:00",
    "end_time": "21:00",
    "recurrence": "第3木曜",
    "building_name": "",
    "meeting_type": "家族",
    "official_url": "http://www.tama-danshurengou.jpn.org"
  },
  {
    "id": 549,
    "facility_name": "江東区総合区民センター",
    "address": "東京都江東区大島４丁目５−１",
    "lat": 35.6901,
    "lng": 139.8197,
    "meeting_name": "江東懇談会",
    "schedule": "",
    "contact_phone": "",
    "prefecture": "東京都",
    "next_date": "2026-06-19",
    "start_time": "18:30",
    "end_time": "20:30",
    "recurrence": "",
    "building_name": "",
    "meeting_type": "通常",
    "official_url": ""
  },
  {
    "id": 113,
    "facility_name": "久里浜コミュニティセンター",
    "address": "神奈川県横須賀市久里浜６丁目１４−２ 横須賀市久里浜行政センター 2階",
    "lat": 35.2266507,
    "lng": 139.7060164,
    "meeting_name": "南部久里浜例会",
    "schedule": "",
    "contact_phone": "",
    "prefecture": "神奈川県",
    "next_date": "2026-06-19",
    "start_time": "19:00",
    "end_time": "20:15",
    "recurrence": "",
    "building_name": "",
    "meeting_type": "通常",
    "official_url": "https://www.shindanren.com"
  },
  {
    "id": 120,
    "facility_name": "鎌倉市福祉センター",
    "address": "神奈川県鎌倉市御成町２０−２１",
    "lat": 35.3170594,
    "lng": 139.5462249,
    "meeting_name": "鎌倉本部例会",
    "schedule": "",
    "contact_phone": "",
    "prefecture": "神奈川県",
    "next_date": "2026-06-19",
    "start_time": "19:00",
    "end_time": "19:45",
    "recurrence": "",
    "building_name": "",
    "meeting_type": "通常",
    "official_url": "https://www.shindanren.com"
  },
  {
    "id": 251,
    "facility_name": "上野原市文化ホール(もみじホール),",
    "address": "山梨県上野原市上野原３８３２",
    "lat": 35.6300547,
    "lng": 139.1081617,
    "meeting_name": "上野原例会",
    "schedule": "",
    "contact_phone": "",
    "prefecture": "山梨県",
    "next_date": "2026-06-20",
    "start_time": "13:00",
    "end_time": "15:00",
    "recurrence": "",
    "building_name": "",
    "meeting_type": "通常",
    "official_url": "https://www.tokyo-danshu.or.jp/index.html"
  },
  {
    "id": 15,
    "facility_name": "西久保コミュニティーセンター",
    "address": "東京都武蔵野市西久保１丁目２３−７ 西久保コミュニティセンター",
    "lat": 35.706036,
    "lng": 139.5568566,
    "meeting_name": "西武若葉会",
    "schedule": "",
    "contact_phone": "",
    "prefecture": "東京都",
    "next_date": "2026-06-20",
    "start_time": "14:00",
    "end_time": "16:00",
    "recurrence": "",
    "building_name": "",
    "meeting_type": "通常",
    "official_url": "https://www.tokyo-danshu.or.jp/index.html"
  },
  {
    "id": 100,
    "facility_name": "いせはら市民活動サポートセンター",
    "address": "伊勢原市田中２９７",
    "lat": 35.4021262,
    "lng": 139.3148034,
    "meeting_name": "伊勢原例会",
    "schedule": "",
    "contact_phone": "",
    "prefecture": "神奈川県",
    "next_date": "2026-06-20",
    "start_time": "12:45",
    "end_time": "13:30",
    "recurrence": "",
    "building_name": "",
    "meeting_type": "通常",
    "official_url": "https://www.shindanren.com"
  },
  {
    "id": 96,
    "facility_name": "高津市民館",
    "address": "神奈川県川崎市高津区溝口１丁目４−１ ノクティ２ １１Ｆ・１２Ｆ",
    "lat": 35.5992207,
    "lng": 139.6127035,
    "meeting_name": "高津市民館例会",
    "schedule": "",
    "contact_phone": "",
    "prefecture": "神奈川県",
    "next_date": "2026-06-20",
    "start_time": "19:00",
    "end_time": "20:45",
    "recurrence": "",
    "building_name": "",
    "meeting_type": "通常",
    "official_url": "https://www.shindanren.com"
  },
  {
    "id": 78,
    "facility_name": "貸し会議室 航空会館ビジネスフォーラム",
    "address": "東京都港区新橋１丁目１８−１",
    "lat": 35.66891409999999,
    "lng": 139.7554639,
    "meeting_name": "港例会",
    "schedule": "",
    "contact_phone": "",
    "prefecture": "神奈川県",
    "next_date": "2026-06-21",
    "start_time": "",
    "end_time": "",
    "recurrence": "",
    "building_name": "",
    "meeting_type": "通常",
    "official_url": "https://www.shindanren.com"
  },
  {
    "id": 95,
    "facility_name": "宮前区保健福祉センター",
    "address": "神奈川県川崎市宮前区宮前平２丁目２０−５",
    "lat": 35.5892143,
    "lng": 139.5786927,
    "meeting_name": "宮前例会",
    "schedule": "",
    "contact_phone": "",
    "prefecture": "神奈川県",
    "next_date": "2026-06-22",
    "start_time": "19:00",
    "end_time": "20:45",
    "recurrence": "",
    "building_name": "",
    "meeting_type": "通常",
    "official_url": "https://www.shindanren.com"
  },
  {
    "id": 44,
    "facility_name": "豊洲文化センター",
    "address": "東京都江東区豊洲２丁目２−１８",
    "lat": 35.6542788,
    "lng": 139.7952583,
    "meeting_name": "MM豊洲",
    "schedule": "",
    "contact_phone": "",
    "prefecture": "東京都",
    "next_date": "2026-06-24",
    "start_time": "19:30",
    "end_time": "21:30",
    "recurrence": "",
    "building_name": "",
    "meeting_type": "通常",
    "official_url": "https://www.tokyo-danshu.or.jp/index.html"
  },
  {
    "id": 23,
    "facility_name": "両国駅前会館",
    "address": "東京都墨田区両国２丁目２０−１２ ライオンズステーションプラザ両国 １０１",
    "lat": 35.6953018,
    "lng": 139.7926487,
    "meeting_name": "墨田第１例会",
    "schedule": "",
    "contact_phone": "",
    "prefecture": "東京都",
    "next_date": "2026-06-25",
    "start_time": "18:30",
    "end_time": "20:30",
    "recurrence": "",
    "building_name": "",
    "meeting_type": "通常",
    "official_url": "https://www.tokyo-danshu.or.jp/index.html"
  },
  {
    "id": 244,
    "facility_name": "八王子市生涯学習センター（クリエイトホール）",
    "address": "東京都八王子市東町５−６",
    "lat": 35.658532,
    "lng": 139.3399542,
    "meeting_name": "八王子例会",
    "schedule": "（昼）13:00〜15:00 / （夜）19:00〜21:00",
    "contact_phone": "昼:042-376-2132 / 夜:090-6378-9350",
    "prefecture": "東京都",
    "next_date": "2026-06-25",
    "start_time": "19:00",
    "end_time": "21:00",
    "recurrence": "",
    "building_name": "",
    "meeting_type": "通常",
    "official_url": "http://www.tama-danshurengou.jpn.org"
  },
  {
    "id": 10,
    "facility_name": "太子堂区民センター",
    "address": "東京都世田谷区太子堂１丁目１４−２０ 世田谷区立太子堂区民センター",
    "lat": 35.6428861,
    "lng": 139.6736244,
    "meeting_name": "世田谷五心会",
    "schedule": "",
    "contact_phone": "",
    "prefecture": "東京都",
    "next_date": "2026-06-25",
    "start_time": "18:30",
    "end_time": "20:30",
    "recurrence": "",
    "building_name": "",
    "meeting_type": "通常",
    "official_url": "https://www.tokyo-danshu.or.jp/index.html"
  },
  {
    "id": 252,
    "facility_name": "福生市民会館",
    "address": "東京都福生市福生２４５５",
    "lat": 35.7339173,
    "lng": 139.3378396,
    "meeting_name": "福生例会",
    "schedule": "第四金曜日（昼）14:00〜16:00 ※夜は休会中",
    "contact_phone": "080-4433-9110",
    "prefecture": "東京都",
    "next_date": "2026-06-26",
    "start_time": "14:00",
    "end_time": "16:00",
    "recurrence": "第4金曜",
    "building_name": "",
    "meeting_type": "通常",
    "official_url": "http://www.tama-danshurengou.jpn.org"
  },
  {
    "id": 88,
    "facility_name": "多摩市民館",
    "address": "神奈川県川崎市多摩区登戸１７７５−１",
    "lat": 35.6194623,
    "lng": 139.562151,
    "meeting_name": "多摩市民館例会",
    "schedule": "",
    "contact_phone": "",
    "prefecture": "神奈川県",
    "next_date": "2026-06-26",
    "start_time": "19:00",
    "end_time": "20:45",
    "recurrence": "",
    "building_name": "",
    "meeting_type": "通常",
    "official_url": "https://www.shindanren.com"
  },
  {
    "id": 259,
    "facility_name": "総合福祉会館",
    "address": "千葉県野田市鶴奉5ー1",
    "lat": 35.9566619,
    "lng": 139.8731574,
    "meeting_name": "野田例会",
    "schedule": "",
    "contact_phone": "",
    "prefecture": "千葉県",
    "next_date": "2026-06-27",
    "start_time": "18:30",
    "end_time": "20:30",
    "recurrence": "",
    "building_name": "",
    "meeting_type": "通常",
    "official_url": "https://sites.google.com/view/chibadanshu/"
  },
  {
    "id": 94,
    "facility_name": "川崎市中原市民館",
    "address": "神奈川県川崎市中原区新丸子東３丁目１１００−１２ パークシティ武蔵小杉ミッドスカイ",
    "lat": 35.5748787,
    "lng": 139.6604338,
    "meeting_name": "つばき家族会",
    "schedule": "",
    "contact_phone": "",
    "prefecture": "神奈川県",
    "next_date": "2026-06-27",
    "start_time": "19:00",
    "end_time": "20:45",
    "recurrence": "",
    "building_name": "",
    "meeting_type": "通常",
    "official_url": "https://www.shindanren.com"
  },
  {
    "id": 257,
    "facility_name": "市原市八幡総合市民センター やわたパレット",
    "address": "千葉県市原市八幡１０５０−３",
    "lat": 35.5373022,
    "lng": 140.1154897,
    "meeting_name": "市原例会",
    "schedule": "",
    "contact_phone": "",
    "prefecture": "千葉県",
    "next_date": "2026-07-05",
    "start_time": "09:50",
    "end_time": "11:50",
    "recurrence": "毎月 第1日曜",
    "building_name": "",
    "meeting_type": "通常",
    "official_url": "https://sites.google.com/view/chibadanshu/"
  },
  {
    "id": 121,
    "facility_name": "神奈川県立精神医療センター",
    "address": "神奈川県横浜市港南区芹が谷２丁目５−１",
    "lat": 35.4206328,
    "lng": 139.5734413,
    "meeting_name": "院内例会",
    "schedule": "",
    "contact_phone": "",
    "prefecture": "神奈川県",
    "next_date": "2026-07-05",
    "start_time": "14:00",
    "end_time": "15:00",
    "recurrence": "",
    "building_name": "",
    "meeting_type": "通常",
    "official_url": "https://www.shindanren.com"
  },
  {
    "id": 109,
    "facility_name": "久里浜医療センター2階病棟",
    "address": "神奈川県横須賀市野比5-3-1",
    "lat": 35.2138991,
    "lng": 139.7192223,
    "meeting_name": "久里浜院内例会",
    "schedule": "",
    "contact_phone": "",
    "prefecture": "神奈川県",
    "next_date": "2026-07-06",
    "start_time": "19:00",
    "end_time": "20:00",
    "recurrence": "",
    "building_name": "",
    "meeting_type": "家族",
    "official_url": "https://www.shindanren.com"
  },
  {
    "id": 119,
    "facility_name": "葉山町 福祉文化会館",
    "address": "神奈川県三浦郡葉山町堀内２２２０ 葉山町福祉文化会館",
    "lat": 35.273019,
    "lng": 139.587036,
    "meeting_name": "葉山例会",
    "schedule": "",
    "contact_phone": "",
    "prefecture": "神奈川県",
    "next_date": "2026-07-06",
    "start_time": "19:00",
    "end_time": "20:00",
    "recurrence": "",
    "building_name": "",
    "meeting_type": "通常",
    "official_url": "https://www.shindanren.com"
  },
  {
    "id": 105,
    "facility_name": "六会市民センター",
    "address": "神奈川県藤沢市亀井野４丁目８−１",
    "lat": 35.3835222,
    "lng": 139.4737365,
    "meeting_name": "六会例会",
    "schedule": "",
    "contact_phone": "",
    "prefecture": "神奈川県",
    "next_date": "2026-07-09",
    "start_time": "19:00",
    "end_time": "21:00",
    "recurrence": "YEARLY",
    "building_name": "",
    "meeting_type": "通常",
    "official_url": "https://www.shindanren.com"
  },
  {
    "id": 83,
    "facility_name": "横浜市健康福祉総合センター",
    "address": "神奈川県横浜市中区桜木町１丁目１",
    "lat": 35.4497142,
    "lng": 139.6310632,
    "meeting_name": "中支部",
    "schedule": "",
    "contact_phone": "",
    "prefecture": "神奈川県",
    "next_date": "2026-07-16",
    "start_time": "10:00",
    "end_time": "12:00",
    "recurrence": "",
    "building_name": "",
    "meeting_type": "通常",
    "official_url": "https://www.shindanren.com"
  },
  {
    "id": 79,
    "facility_name": "横浜市中山地域ケアプラザ",
    "address": "神奈川県横浜市緑区中山２丁目１−１",
    "lat": 35.5163989,
    "lng": 139.5437519,
    "meeting_name": "緑支部※スリッパ持参",
    "schedule": "",
    "contact_phone": "",
    "prefecture": "神奈川県",
    "next_date": "2026-07-17",
    "start_time": "18:45",
    "end_time": "20:15",
    "recurrence": "",
    "building_name": "",
    "meeting_type": "通常",
    "official_url": "https://www.shindanren.com"
  },
  {
    "id": 318,
    "facility_name": "オンラインイベント",
    "address": "オンラインイベント",
    "lat": 35.4913535,
    "lng": 139.284143,
    "meeting_name": "⭐️【オンライン開催】第106回こんぼ亭月例会「知らずに損してない？ もらえるお金と減らせる支出」",
    "schedule": "",
    "contact_phone": "",
    "prefecture": "神奈川県",
    "next_date": "2026-07-18",
    "start_time": "04:00",
    "end_time": "06:00",
    "recurrence": "",
    "building_name": "",
    "meeting_type": "通常",
    "official_url": "https://www.shindanren.com"
  },
  {
    "id": 77,
    "facility_name": "横浜市浦舟地域ケアプラザ",
    "address": "神奈川県横浜市南区浦舟町３丁目４６",
    "lat": 35.4340411,
    "lng": 139.6258778,
    "meeting_name": "南支部",
    "schedule": "",
    "contact_phone": "",
    "prefecture": "神奈川県",
    "next_date": "2026-07-29",
    "start_time": "18:30",
    "end_time": "20:00",
    "recurrence": "",
    "building_name": "",
    "meeting_type": "通常",
    "official_url": "https://www.shindanren.com"
  },
  {
    "id": 254,
    "facility_name": "全日警ホール",
    "address": "千葉県市川市八幡４丁目２−１",
    "lat": 35.7241234,
    "lng": 139.9307643,
    "meeting_name": "市川例会",
    "schedule": "",
    "contact_phone": "",
    "prefecture": "千葉県",
    "next_date": "2026-08-02",
    "start_time": "10:00",
    "end_time": "15:30",
    "recurrence": "",
    "building_name": "",
    "meeting_type": "通常",
    "official_url": "https://sites.google.com/view/chibadanshu/"
  },
  {
    "id": 97,
    "facility_name": "川崎市 川崎区役所",
    "address": "神奈川県川崎市川崎区東田町８",
    "lat": 35.5296785,
    "lng": 139.7040441,
    "meeting_name": "川崎例会",
    "schedule": "",
    "contact_phone": "",
    "prefecture": "神奈川県",
    "next_date": "2026-08-05",
    "start_time": "18:30",
    "end_time": "20:30",
    "recurrence": "",
    "building_name": "",
    "meeting_type": "通常",
    "official_url": "https://www.shindanren.com"
  },
  {
    "id": 319,
    "facility_name": "Online Event",
    "address": "Online Event",
    "lat": 35.4913535,
    "lng": 139.284143,
    "meeting_name": "⭐️2026年度第1回こころの元気＋活用セミナー・こころの元気＋まつり「セルフ・コンパッション手習帳 ～自分によりそう毎日～」",
    "schedule": "",
    "contact_phone": "",
    "prefecture": "神奈川県",
    "next_date": "2026-08-08",
    "start_time": "04:00",
    "end_time": "07:00",
    "recurrence": "",
    "building_name": "",
    "meeting_type": "通常",
    "official_url": "https://www.shindanren.com"
  },
  {
    "id": 107,
    "facility_name": "藤沢市保健所・南保健センター",
    "address": "神奈川県藤沢市鵠沼２１３１−１ 藤沢保健所",
    "lat": 35.3313115,
    "lng": 139.4884386,
    "meeting_name": "藤沢例会",
    "schedule": "",
    "contact_phone": "",
    "prefecture": "神奈川県",
    "next_date": "2026-08-20",
    "start_time": "19:00",
    "end_time": "20:45",
    "recurrence": "",
    "building_name": "",
    "meeting_type": "通常",
    "official_url": "https://www.shindanren.com"
  },
  {
    "id": 82,
    "facility_name": "横浜市二ツ橋地域ケアプラザ",
    "address": "神奈川県横浜市瀬谷区二ツ橋町８３−４",
    "lat": 35.4655425,
    "lng": 139.4994534,
    "meeting_name": "瀬谷支部 ３階",
    "schedule": "",
    "contact_phone": "",
    "prefecture": "神奈川県",
    "next_date": "2026-09-02",
    "start_time": "18:30",
    "end_time": "20:00",
    "recurrence": "",
    "building_name": "",
    "meeting_type": "通常",
    "official_url": "https://www.shindanren.com"
  },
  {
    "id": 106,
    "facility_name": "明治市民センター",
    "address": "神奈川県藤沢市辻堂新町１丁目１１−２３ 藤沢市消防局南消防署明治出張所",
    "lat": 35.3402371,
    "lng": 139.4493101,
    "meeting_name": "辻堂例会",
    "schedule": "",
    "contact_phone": "",
    "prefecture": "神奈川県",
    "next_date": "2026-12-31",
    "start_time": "19:00",
    "end_time": "21:00",
    "recurrence": "MONTHLY",
    "building_name": "",
    "meeting_type": "通常",
    "official_url": "https://www.shindanren.com"
  },
  {
    "id": 260,
    "facility_name": "千葉市 稲毛公民館",
    "address": "千葉県千葉市稲毛区稲毛１丁目１０−１７",
    "lat": 35.6365597,
    "lng": 140.0834126,
    "meeting_name": "千葉例会",
    "schedule": "",
    "contact_phone": "",
    "prefecture": "千葉県",
    "next_date": "2027-01-09",
    "start_time": "18:30",
    "end_time": "20:30",
    "recurrence": "",
    "building_name": "",
    "meeting_type": "通常",
    "official_url": "https://sites.google.com/view/chibadanshu/"
  },
  {
    "id": 550,
    "facility_name": "余市町中央公民館",
    "address": "余市郡余市町大川町4丁目143",
    "lat": 43.190907,
    "lng": 140.794754,
    "meeting_name": "余市新生断酒会",
    "schedule": "",
    "contact_phone": "0135-23-5001",
    "prefecture": "北海道",
    "next_date": null,
    "start_time": null,
    "end_time": null,
    "recurrence": null,
    "building_name": null,
    "meeting_type": "通常",
    "official_url": "http://h-dansyurengoukai.com"
  },
  {
    "id": 551,
    "facility_name": "函館市総合福祉センター",
    "address": "函館市若松町33番6号",
    "lat": 41.776939,
    "lng": 140.731369,
    "meeting_name": "函館断酒会",
    "schedule": "",
    "contact_phone": "0138-22-6262",
    "prefecture": "北海道",
    "next_date": null,
    "start_time": null,
    "end_time": null,
    "recurrence": null,
    "building_name": null,
    "meeting_type": "通常",
    "official_url": "http://h-dansyurengoukai.com/"
  },
  {
    "id": 552,
    "facility_name": "北広島市芸術文化ホール",
    "address": "北広島市中央6丁目2-1",
    "lat": 42.979164,
    "lng": 141.565048,
    "meeting_name": "北広島断酒会",
    "schedule": "",
    "contact_phone": "",
    "prefecture": "北海道",
    "next_date": null,
    "start_time": null,
    "end_time": null,
    "recurrence": null,
    "building_name": null,
    "meeting_type": "通常",
    "official_url": "http://h-dansyurengoukai.com"
  },
  {
    "id": 553,
    "facility_name": "名寄市総合福祉センター",
    "address": "名寄市西1条南12丁目",
    "lat": 44.342213,
    "lng": 142.462387,
    "meeting_name": "名寄断酒会",
    "schedule": "",
    "contact_phone": "01654-3-9862",
    "prefecture": "北海道",
    "next_date": null,
    "start_time": null,
    "end_time": null,
    "recurrence": null,
    "building_name": null,
    "meeting_type": "通常",
    "official_url": "http://h-dansyurengoukai.com"
  },
  {
    "id": 554,
    "facility_name": "早来保健センター　　安平町健康福祉課☎0145-29-7071台",
    "address": "安平町早来大町95（安平総合庁舎前）",
    "lat": 42.762218,
    "lng": 141.81897,
    "meeting_name": "安平断酒会",
    "schedule": "",
    "contact_phone": "0145-22-2735",
    "prefecture": "北海道",
    "next_date": null,
    "start_time": null,
    "end_time": null,
    "recurrence": null,
    "building_name": null,
    "meeting_type": "通常",
    "official_url": "http://h-dansyurengoukai.com/"
  },
  {
    "id": 555,
    "facility_name": "苫小牧市市民活動センター",
    "address": "苫小牧市若草町3丁目3-8",
    "lat": 42.635979,
    "lng": 141.603821,
    "meeting_name": "新生樽前",
    "schedule": "",
    "contact_phone": "0144-32-7111",
    "prefecture": "北海道",
    "next_date": null,
    "start_time": null,
    "end_time": null,
    "recurrence": null,
    "building_name": null,
    "meeting_type": "通常",
    "official_url": "http://h-dansyurengoukai.com/"
  },
  {
    "id": 556,
    "facility_name": "レンカルナ旭川",
    "address": "旭川市9条14丁目24番地",
    "lat": 43.777073,
    "lng": 142.352325,
    "meeting_name": "旭川中央断酒会",
    "schedule": "",
    "contact_phone": "",
    "prefecture": "北海道",
    "next_date": null,
    "start_time": null,
    "end_time": null,
    "recurrence": null,
    "building_name": null,
    "meeting_type": "通常",
    "official_url": "http://h-dansyurengoukai.com"
  },
  {
    "id": 557,
    "facility_name": "北星公民館",
    "address": "旭川市北門町8丁目",
    "lat": 43.785133,
    "lng": 142.348312,
    "meeting_name": "旭川北斗断酒会",
    "schedule": "",
    "contact_phone": "0166-52-5545",
    "prefecture": "北海道",
    "next_date": null,
    "start_time": null,
    "end_time": null,
    "recurrence": null,
    "building_name": null,
    "meeting_type": "通常",
    "official_url": "http://h-dansyurengoukai.com"
  },
  {
    "id": 558,
    "facility_name": "末広公民館",
    "address": "旭川市末広町",
    "lat": 43.802284,
    "lng": 142.382401,
    "meeting_name": "旭川北部断酒会",
    "schedule": "",
    "contact_phone": "0166-23-9299",
    "prefecture": "北海道",
    "next_date": null,
    "start_time": null,
    "end_time": null,
    "recurrence": null,
    "building_name": null,
    "meeting_type": "通常",
    "official_url": "http://h-dansyurengoukai.com"
  },
  {
    "id": 559,
    "facility_name": "いきいきセンター新旭川",
    "address": "旭川市新富1条3丁目",
    "lat": 43.793011,
    "lng": 142.385605,
    "meeting_name": "旭川断酒会",
    "schedule": "",
    "contact_phone": "0166-27-2287",
    "prefecture": "北海道",
    "next_date": null,
    "start_time": null,
    "end_time": null,
    "recurrence": null,
    "building_name": null,
    "meeting_type": "通常",
    "official_url": "http://h-dansyurengoukai.com"
  },