[
  {
    "id": 631,
    "facility_name": "津市美杉総合文化センター",
    "address": "三重県津市美杉町矢知5580-2",
    "lat": 34.521942,
    "lng": 136.224411,
    "meeting_name": "一志例会",
    "schedule": "第2･4 水曜日 19:00～21:00",
    "contact_phone": "",
    "prefecture": "三重県",
    "next_date": null,
    "start_time": null,
    "end_time": null,
    "recurrence": null,
    "building_name": null,
    "meeting_type": "通常",
    "official_url": "http://www.geocities.jp/miedanshu/index.htm"
  },
  {
    "id": 632,
    "facility_name": "伊賀市南部公民館",
    "address": "三重県伊賀市桑町1412",
    "lat": 34.749832,
    "lng": 136.142258,
    "meeting_name": "上野例会",
    "schedule": "毎週 火曜日 19:00～21:00",
    "contact_phone": "",
    "prefecture": "三重県",
    "next_date": null,
    "start_time": null,
    "end_time": null,
    "recurrence": null,
    "building_name": null,
    "meeting_type": "通常",
    "official_url": "http://www.geocities.jp/miedanshu/index.htm"
  },
  {
    "id": 633,
    "facility_name": "名張勤労福祉会館",
    "address": "三重県名張市夏見2812",
    "lat": 34.622604,
    "lng": 136.111969,
    "meeting_name": "名張例会",
    "schedule": "第1･3 水曜日 19:00～21:00",
    "contact_phone": "",
    "prefecture": "三重県",
    "next_date": null,
    "start_time": null,
    "end_time": null,
    "recurrence": null,
    "building_name": null,
    "meeting_type": "通常",
    "official_url": "http://www.geocities.jp/miedanshu/index.htm"
  },
  {
    "id": 634,
    "facility_name": "亀山市市民協働センターみらい",
    "address": "三重県亀山市東町1丁目8-7",
    "lat": 34.85471,
    "lng": 136.454529,
    "meeting_name": "亀山例会",
    "schedule": "第2･4 火曜日 19:00～21:00",
    "contact_phone": "",
    "prefecture": "三重県",
    "next_date": null,
    "start_time": null,
    "end_time": null,
    "recurrence": null,
    "building_name": null,
    "meeting_type": "通常",
    "official_url": "http://www.geocities.jp/miedanshu/index.htm"
  },
  {
    "id": 635,
    "facility_name": "断酒の家",
    "address": "三重県津市藤方上がり坂218",
    "lat": 34.690361,
    "lng": 136.516327,
    "meeting_name": "津例会",
    "schedule": "第1･3･5 日曜日 18:00～20:00",
    "contact_phone": "",
    "prefecture": "三重県",
    "next_date": null,
    "start_time": null,
    "end_time": null,
    "recurrence": null,
    "building_name": null,
    "meeting_type": "通常",
    "official_url": "http://www.geocities.jp/miedanshu/index.htm"
  },
  {
    "id": 636,
    "facility_name": "四日市市民活動センター",
    "address": "三重県四日市市蔵町4-7",
    "lat": 34.965015,
    "lng": 136.633362,
    "meeting_name": "合同例会",
    "schedule": "第5 木曜日 18:45～20:45",
    "contact_phone": "",
    "prefecture": "三重県",
    "next_date": null,
    "start_time": null,
    "end_time": null,
    "recurrence": null,
    "building_name": null,
    "meeting_type": "通常",
    "official_url": "http://www.geocities.jp/miedanshu/index.htm"
  },
  {
    "id": 637,
    "facility_name": "桑名市総合福祉会館",
    "address": "三重県桑名市常盤町5",
    "lat": 35.064724,
    "lng": 136.690308,
    "meeting_name": "桑名例会",
    "schedule": "第1･3 火曜日 18:45～20:45",
    "contact_phone": "",
    "prefecture": "三重県",
    "next_date": null,
    "start_time": null,
    "end_time": null,
    "recurrence": null,
    "building_name": null,
    "meeting_type": "通常",
    "official_url": "http://www.geocities.jp/miedanshu/index.htm"
  },
  {
    "id": 638,
    "facility_name": "若松公民館",
    "address": "三重県鈴鹿市若松中2丁目3-8",
    "lat": 34.86021,
    "lng": 136.613129,
    "meeting_name": "鈴鹿例会",
    "schedule": "第2･4 木曜日 19:00～21:00",
    "contact_phone": "",
    "prefecture": "三重県",
    "next_date": null,
    "start_time": null,
    "end_time": null,
    "recurrence": null,
    "building_name": null,
    "meeting_type": "通常",
    "official_url": "http://www.geocities.jp/miedanshu/index.htm"
  },
  {
    "id": 639,
    "facility_name": "岡本会館",
    "address": "三重県伊勢市岡本町2丁目2-30",
    "lat": 34.484848,
    "lng": 136.711502,
    "meeting_name": "伊勢例会",
    "schedule": "第2･4･5 木曜日 19:00～21:00",
    "contact_phone": "",
    "prefecture": "三重県",
    "next_date": null,
    "start_time": null,
    "end_time": null,
    "recurrence": null,
    "building_name": null,
    "meeting_type": "通常",
    "official_url": "http://www.geocities.jp/miedanshu/index.htm"
  },
  {
    "id": 640,
    "facility_name": "志摩市磯部生涯学習センター",
    "address": "三重県志摩市磯部町迫間878-9",
    "lat": 34.374275,
    "lng": 136.804489,
    "meeting_name": "合同例会",
    "schedule": "第3 木曜日 19:00～21:00",
    "contact_phone": "",
    "prefecture": "三重県",
    "next_date": null,
    "start_time": null,
    "end_time": null,
    "recurrence": null,
    "building_name": null,
    "meeting_type": "通常",
    "official_url": "http://www.geocities.jp/miedanshu/index.htm"
  },
  {
    "id": 641,
    "facility_name": "三重県こころの医療センター",
    "address": "三重県津市城山1丁目12-1",
    "lat": 34.675392,
    "lng": 136.507568,
    "meeting_name": "アメシスト例会",
    "schedule": "第2 土曜日 19:00～20:30",
    "contact_phone": "",
    "prefecture": "三重県",
    "next_date": null,
    "start_time": null,
    "end_time": null,
    "recurrence": null,
    "building_name": null,
    "meeting_type": "女性(アメシスト)",
    "official_url": "http://www.geocities.jp/miedanshu/index.htm"
  },
  {
    "id": 642,
    "facility_name": "多気町民文化会館",
    "address": "三重県多気郡多気町相可1587-1",
    "lat": 34.49762,
    "lng": 136.541046,
    "meeting_name": "多気例会",
    "schedule": "第1 水曜日 19:00～21:00",
    "contact_phone": "",
    "prefecture": "三重県",
    "next_date": null,
    "start_time": null,
    "end_time": null,
    "recurrence": null,
    "building_name": null,
    "meeting_type": "通常",
    "official_url": "http://www.geocities.jp/miedanshu/index.htm"
  },
  {
    "id": 643,
    "facility_name": "グリーンプラザおおだい",
    "address": "三重県多気郡大台町栃原1691-1",
    "lat": 34.445484,
    "lng": 136.518158,
    "meeting_name": "大台例会",
    "schedule": "第3 水曜日 19:00～21:00",
    "contact_phone": "",
    "prefecture": "三重県",
    "next_date": null,
    "start_time": null,
    "end_time": null,
    "recurrence": null,
    "building_name": null,
    "meeting_type": "通常",
    "official_url": "http://www.geocities.jp/miedanshu/index.htm"
  },
  {
    "id": 644,
    "facility_name": "松阪市第一公民館",
    "address": "三重県松阪市殿町310-2",
    "lat": 34.574768,
    "lng": 136.526505,
    "meeting_name": "松阪例会",
    "schedule": "第2･4･5 水曜日 19:00～21:00",
    "contact_phone": "",
    "prefecture": "三重県",
    "next_date": null,
    "start_time": null,
    "end_time": null,
    "recurrence": null,
    "building_name": null,
    "meeting_type": "通常",
    "official_url": "http://www.geocities.jp/miedanshu/index.htm"
  },
  {
    "id": 645,
    "facility_name": "尾鷲市福祉保健センター",
    "address": "三重県尾鷲市栄町5-5",
    "lat": 34.074207,
    "lng": 136.195236,
    "meeting_name": "尾鷲例会",
    "schedule": "第2･4 火曜日 19:00～21:00",
    "contact_phone": "",
    "prefecture": "三重県",
    "next_date": null,
    "start_time": null,
    "end_time": null,
    "recurrence": null,
    "building_name": null,
    "meeting_type": "通常",
    "official_url": "http://www.geocities.jp/miedanshu/index.htm"
  },
  {
    "id": 646,
    "facility_name": "熊野病院支援センター",
    "address": "三重県熊野市久生屋868",
    "lat": 33.860859,
    "lng": 136.066406,
    "meeting_name": "熊野例会",
    "schedule": "第1･3･5 火曜日 19:00～21:00",
    "contact_phone": "",
    "prefecture": "三重県",
    "next_date": null,
    "start_time": null,
    "end_time": null,
    "recurrence": null,
    "building_name": null,
    "meeting_type": "通常",
    "official_url": "http://www.geocities.jp/miedanshu/index.htm"
  },
  {
    "id": 647,
    "facility_name": "市立平野公民館",
    "address": "滋賀県大津市馬場３丁目15-45",
    "lat": 34.998207,
    "lng": 135.88237,
    "meeting_name": "家族会",
    "schedule": "第2 火曜日 18:30～20:30",
    "contact_phone": "",
    "prefecture": "滋賀県",
    "next_date": null,
    "start_time": null,
    "end_time": null,
    "recurrence": null,
    "building_name": null,
    "meeting_type": "家族会",
    "official_url": "http://shigadansyu.com/page4.html"
  },
  {
    "id": 648,
    "facility_name": "男女共同参画センター",
    "address": "滋賀県近江八幡市鷹飼町80-4",
    "lat": 35.118572,
    "lng": 136.108322,
    "meeting_name": "例会",
    "schedule": "第1 日曜日 18:00～20:15",
    "contact_phone": "",
    "prefecture": "滋賀県",
    "next_date": null,
    "start_time": null,
    "end_time": null,
    "recurrence": null,
    "building_name": null,
    "meeting_type": "通常",
    "official_url": "http://shigadansyu.com/page4.html"
  },
  {
    "id": 649,
    "facility_name": "市立瀬田東公民館",
    "address": "滋賀県大津市一里山3丁目16-1",
    "lat": 34.983856,
    "lng": 135.93512,
    "meeting_name": "例会",
    "schedule": "毎週 木曜日 19:00～21:00",
    "contact_phone": "",
    "prefecture": "滋賀県",
    "next_date": null,
    "start_time": null,
    "end_time": null,
    "recurrence": null,
    "building_name": null,
    "meeting_type": "通常",
    "official_url": "http://shigadansyu.com/page4.html"
  },
  {
    "id": 650,
    "facility_name": "市立安曇川公民館",
    "address": "滋賀県高島市安曇川町田中89",
    "lat": 35.332802,
    "lng": 136.01886,
    "meeting_name": "例会",
    "schedule": "毎週 金曜日 19:00～21:00",
    "contact_phone": "",
    "prefecture": "滋賀県",
    "next_date": null,
    "start_time": null,
    "end_time": null,
    "recurrence": null,
    "building_name": null,
    "meeting_type": "通常",
    "official_url": "http://shigadansyu.com/page4.html"
  },
  {
    "id": 651,
    "facility_name": "市立矢倉公民館",
    "address": "滋賀県草津市東矢倉2丁目13-6",
    "lat": 35.005337,
    "lng": 135.954559,
    "meeting_name": "例会",
    "schedule": "毎週 月曜日 19:00～21:00",
    "contact_phone": "",
    "prefecture": "滋賀県",
    "next_date": null,
    "start_time": null,
    "end_time": null,
    "recurrence": null,
    "building_name": null,
    "meeting_type": "通常",
    "official_url": "http://shigadansyu.com/page4.html"
  },
  {
    "id": 652,
    "facility_name": "老人福祉センターゆうあいの家",
    "address": "滋賀県栗東市小柿1丁目10-10",
    "lat": 35.026985,
    "lng": 135.977249,
    "meeting_name": "例会",
    "schedule": "毎週 木曜日 19:00～21:00",
    "contact_phone": "",
    "prefecture": "滋賀県",
    "next_date": null,
    "start_time": null,
    "end_time": null,
    "recurrence": null,
    "building_name": null,
    "meeting_type": "通常",
    "official_url": "http://shigadansyu.com/page4.html"
  },
  {
    "id": 653,
    "facility_name": "守山市民交流センター（さんさん守山）",
    "address": "滋賀県守山市守山２丁目16-45",
    "lat": 35.059505,
    "lng": 135.994049,
    "meeting_name": "例会",
    "schedule": "毎週 土曜日 19:00～21:00",
    "contact_phone": "",
    "prefecture": "滋賀県",
    "next_date": null,
    "start_time": null,
    "end_time": null,
    "recurrence": null,
    "building_name": null,
    "meeting_type": "通常",
    "official_url": "http://shigadansyu.com/page4.html"
  },
  {
    "id": 654,
    "facility_name": "あいこうか市民ホール",
    "address": "滋賀県甲賀市水口町水口５６３３番地",
    "lat": 34.967346,
    "lng": 136.166595,
    "meeting_name": "例会",
    "schedule": "毎週 金曜日 19:00～21:00",
    "contact_phone": "",
    "prefecture": "滋賀県",
    "next_date": null,
    "start_time": null,
    "end_time": null,
    "recurrence": null,
    "building_name": null,
    "meeting_type": "通常",
    "official_url": "http://shigadansyu.com/page4.html"
  },
  {
    "id": 655,
    "facility_name": "堅田公民館",
    "address": "滋賀県大津市本堅田３丁目8-1",
    "lat": 35.114552,
    "lng": 135.914703,
    "meeting_name": "例会",
    "schedule": "毎週 水曜日 18:30～20:30",
    "contact_phone": "",
    "prefecture": "滋賀県",
    "next_date": null,
    "start_time": null,
    "end_time": null,
    "recurrence": null,
    "building_name": null,
    "meeting_type": "通常",
    "official_url": "http://shigadansyu.com/page4.html"
  },
  {
    "id": 656,
    "facility_name": "甲南公民館",
    "address": "滋賀県甲賀市甲南町竜法師600",
    "lat": 34.919628,
    "lng": 136.170532,
    "meeting_name": "例会",
    "schedule": "毎週 木曜日 19:00～21:00",
    "contact_phone": "",
    "prefecture": "滋賀県",
    "next_date": null,
    "start_time": null,
    "end_time": null,
    "recurrence": null,
    "building_name": null,
    "meeting_type": "通常",
    "official_url": "http://shigadansyu.com/page4.html"
  },
  {
    "id": 657,
    "facility_name": "市立市民共生センター",
    "address": "滋賀県近江八幡市大森町41-7",
    "lat": 35.111828,
    "lng": 136.087463,
    "meeting_name": "例会",
    "schedule": "毎週 土曜日 19:00～21:00",
    "contact_phone": "",
    "prefecture": "滋賀県",
    "next_date": null,
    "start_time": null,
    "end_time": null,
    "recurrence": null,
    "building_name": null,
    "meeting_type": "通常",
    "official_url": "http://shigadansyu.com/page4.html"
  },
  {
    "id": 658,
    "facility_name": "彦根市東地区公民館",
    "address": "滋賀県彦根市大東町1-26",
    "lat": 35.271286,
    "lng": 136.261368,
    "meeting_name": "例会",
    "schedule": "毎週 金曜日 18:50～20:50",
    "contact_phone": "",
    "prefecture": "滋賀県",
    "next_date": null,
    "start_time": null,
    "end_time": null,
    "recurrence": null,
    "building_name": null,
    "meeting_type": "通常",
    "official_url": "http://shigadansyu.com/page4.html"
  },
  {
    "id": 659,
    "facility_name": "神照まちづくりセンター",
    "address": "滋賀県長浜市神照286-1",
    "lat": 35.396305,
    "lng": 136.273575,
    "meeting_name": "例会",
    "schedule": "毎週 火曜日 19:00～21:00",
    "contact_phone": "",
    "prefecture": "滋賀県",
    "next_date": null,
    "start_time": null,
    "end_time": null,
    "recurrence": null,
    "building_name": null,
    "meeting_type": "通常",
    "official_url": "http://shigadansyu.com/page4.html"
  },
  {
    "id": 660,
    "facility_name": "明日都浜大津",
    "address": "滋賀県大津市浜大津4丁目1番1号",
    "lat": 35.011639,
    "lng": 135.86319,
    "meeting_name": "例会",
    "schedule": "第5 火曜日 18:30～20:30",
    "contact_phone": "",
    "prefecture": "滋賀県",
    "next_date": null,
    "start_time": null,
    "end_time": null,
    "recurrence": null,
    "building_name": null,
    "meeting_type": "通常",
    "official_url": "http://shigadansyu.com/page4.html"
  },
  {
    "id": 661,
    "facility_name": "彦根市障害者福祉センター",
    "address": "滋賀県彦根市平田町594",
    "lat": 35.256996,
    "lng": 136.238266,
    "meeting_name": "昼例会",
    "schedule": "第1･3 水曜日 13:30～15:00",
    "contact_phone": "",
    "prefecture": "滋賀県",
    "next_date": null,
    "start_time": null,
    "end_time": null,
    "recurrence": null,
    "building_name": null,
    "meeting_type": "通常",
    "official_url": "http://shigadansyu.com/page4.html"
  },
  {
    "id": 662,
    "facility_name": "長浜保健所",
    "address": "滋賀県長浜市平方町1152-2",
    "lat": 35.378513,
    "lng": 136.285904,
    "meeting_name": "昼例会",
    "schedule": "第2･4 木曜日 13:30～15:00",
    "contact_phone": "",
    "prefecture": "滋賀県",
    "next_date": null,
    "start_time": null,
    "end_time": null,
    "recurrence": null,
    "building_name": null,
    "meeting_type": "通常",
    "official_url": "http://shigadansyu.com/page4.html"
  },
  {
    "id": 663,
    "facility_name": "湖南市保健センター",
    "address": "滋賀県湖南市夏見588",
    "lat": 34.997772,
    "lng": 136.097076,
    "meeting_name": "昼例会",
    "schedule": "毎週 水曜日 14:30～16:00",
    "contact_phone": "",
    "prefecture": "滋賀県",
    "next_date": null,
    "start_time": null,
    "end_time": null,
    "recurrence": null,
    "building_name": null,
    "meeting_type": "通常",
    "official_url": "http://shigadansyu.com/page4.html"
  },
  {
    "id": 664,
    "facility_name": "ウイングプラザ",
    "address": "滋賀県栗東市綣2丁目4-5（JR栗東駅東口徒歩2分）",
    "lat": 35.037289,
    "lng": 135.981461,
    "meeting_name": "朝例会",
    "schedule": "第2･4 火曜日 10:00～12:00",
    "contact_phone": "",
    "prefecture": "滋賀県",
    "next_date": null,
    "start_time": null,
    "end_time": null,
    "recurrence": null,
    "building_name": null,
    "meeting_type": "通常",
    "official_url": "http://shigadansyu.com/page4.html"
  },
  {
    "id": 665,
    "facility_name": "＊",
    "address": "＊",
    "lat": 24.925609,
    "lng": 125.274123,
    "meeting_name": "＊",
    "schedule": "",
    "contact_phone": "",
    "prefecture": "滋賀県",
    "next_date": null,
    "start_time": null,
    "end_time": null,
    "recurrence": null,
    "building_name": null,
    "meeting_type": "通常",
    "official_url": "http://shigadansyu.com/page4.html"
  },
  {
    "id": 666,
    "facility_name": "清水会館",
    "address": "東近江市八日市清水１丁目１−２",
    "lat": 35.112061,
    "lng": 136.194061,
    "meeting_name": "例会",
    "schedule": "毎週 水曜日 19:00～21:00",
    "contact_phone": "",
    "prefecture": "滋賀県",
    "next_date": null,
    "start_time": null,
    "end_time": null,
    "recurrence": null,
    "building_name": null,
    "meeting_type": "通常",
    "official_url": "meeting.html?mtg_id=1463&date=2026-05-01"
  },
  {
    "id": 667,
    "facility_name": "野洲市健康福祉センター会議室",
    "address": "滋賀県野洲市辻町433-1",
    "lat": 35.074188,
    "lng": 136.046982,
    "meeting_name": "例会",
    "schedule": "毎週 金曜日 13:30～15:00",
    "contact_phone": "",
    "prefecture": "滋賀県",
    "next_date": null,
    "start_time": null,
    "end_time": null,
    "recurrence": null,
    "building_name": null,
    "meeting_type": "通常",
    "official_url": "meeting.html?mtg_id=1462&date=2026-05-01"
  },
  {
    "id": 668,
    "facility_name": "京都市会館下京いきいき市民活動センター",
    "address": "京都府京都市下京区上之町38",
    "lat": 34.987007,
    "lng": 135.764877,
    "meeting_name": "例会",
    "schedule": "毎週 金曜日 18:40～20:40",
    "contact_phone": "",
    "prefecture": "京都府",
    "next_date": null,
    "start_time": null,
    "end_time": null,
    "recurrence": null,
    "building_name": null,
    "meeting_type": "通常",
    "official_url": "http://kyodanren.com/index.html"
  },
  {
    "id": 669,
    "facility_name": "みぶ障害者福祉会館",
    "address": "京都府中京区壬生坊城町19-4",
    "lat": 35.02124,
    "lng": 135.755615,
    "meeting_name": "例会",
    "schedule": "毎週 火曜日 18:40～20:40",
    "contact_phone": "",
    "prefecture": "京都府",
    "next_date": null,
    "start_time": null,
    "end_time": null,
    "recurrence": null,
    "building_name": null,
    "meeting_type": "通常",
    "official_url": "http://kyodanren.com/index.html"
  },
  {
    "id": 670,
    "facility_name": "亀岡市総合福祉センター",
    "address": "京都府亀岡市内丸町45-1",
    "lat": 35.013947,
    "lng": 135.578735,
    "meeting_name": "例会",
    "schedule": "毎週 土曜日 19:00～21:00",
    "contact_phone": "",
    "prefecture": "京都府",
    "next_date": null,
    "start_time": null,
    "end_time": null,
    "recurrence": null,
    "building_name": null,
    "meeting_type": "通常",
    "official_url": "http://kyodanren.com/index.html"
  },
  {
    "id": 671,
    "facility_name": "与謝野町中央公民館",
    "address": "京都府与謝郡与謝野町字四辻142-1",
    "lat": 35.53738,
    "lng": 135.100052,
    "meeting_name": "例会",
    "schedule": "第1 水曜日 19:00～21:00",
    "contact_phone": "",
    "prefecture": "京都府",
    "next_date": null,
    "start_time": null,
    "end_time": null,
    "recurrence": null,
    "building_name": null,
    "meeting_type": "通常",
    "official_url": "meeting.html?mtg_id=1208&date=2026-05-01"
  },
  {
    "id": 672,
    "facility_name": "岩滝ふれあいセンター",
    "address": "京都府与謝郡与謝野町字岩滝2272-1",
    "lat": 35.563763,
    "lng": 135.150772,
    "meeting_name": "例会",
    "schedule": "第2･3 水曜日 19:00～21:00",
    "contact_phone": "",
    "prefecture": "京都府",
    "next_date": null,
    "start_time": null,
    "end_time": null,
    "recurrence": null,
    "building_name": null,
    "meeting_type": "通常",
    "official_url": "meeting.html?mtg_id=1209&date=2026-05-01"
  },
  {
    "id": 673,
    "facility_name": "みやづ歴史の館",
    "address": "京都府宮津市字鶴賀2164",
    "lat": 35.538624,
    "lng": 135.197601,
    "meeting_name": "例会",
    "schedule": "第4･5 水曜日 19:00～21:00",
    "contact_phone": "",
    "prefecture": "京都府",
    "next_date": null,
    "start_time": null,
    "end_time": null,
    "recurrence": null,
    "building_name": null,
    "meeting_type": "通常",
    "official_url": "meeting.html?mtg_id=1210&date=2026-05-01"
  },
  {
    "id": 674,
    "facility_name": "京都府立中丹勤労者福祉会館",
    "address": "京都府福知山市昭和新町105",
    "lat": 35.304604,
    "lng": 135.11673,
    "meeting_name": "中央支部例会",
    "schedule": "第1･2･3･5 木曜日 19:00～21:00",
    "contact_phone": "",
    "prefecture": "京都府",
    "next_date": null,
    "start_time": null,
    "end_time": null,
    "recurrence": null,
    "building_name": null,
    "meeting_type": "通常",
    "official_url": "meeting.html?mtg_id=1205&date=2026-05-01"
  },
  {
    "id": 675,
    "facility_name": "京都府",
    "address": "京都府",
    "lat": 35.02124,
    "lng": 135.755615,
    "meeting_name": "八鹿支部例会",
    "schedule": "",
    "contact_phone": "",
    "prefecture": "京都府",
    "next_date": null,
    "start_time": null,
    "end_time": null,
    "recurrence": null,
    "building_name": null,
    "meeting_type": "通常",
    "official_url": "meeting.html?mtg_id=1206&date=2026-05-01"
  },
  {
    "id": 676,
    "facility_name": "舞鶴市商工観光センター",
    "address": "京都府舞鶴市字浜66",
    "lat": 35.477013,
    "lng": 135.39505,
    "meeting_name": "合同例会",
    "schedule": "奇数月 第1 水曜日 19:00～21:00",
    "contact_phone": "",
    "prefecture": "京都府",
    "next_date": null,
    "start_time": null,
    "end_time": null,
    "recurrence": null,
    "building_name": null,
    "meeting_type": "通常",
    "official_url": "meeting.html?mtg_id=1199&date=2026-05-01"
  },
  {
    "id": 677,
    "facility_name": "舞鶴市西総合会館",
    "address": "京都府舞鶴市字南田辺1",
    "lat": 35.447472,
    "lng": 135.33046,
    "meeting_name": "合同例会",
    "schedule": "偶数月 第1 水曜日 19:00～21:00",
    "contact_phone": "",
    "prefecture": "京都府",
    "next_date": null,
    "start_time": null,
    "end_time": null,
    "recurrence": null,
    "building_name": null,
    "meeting_type": "通常",
    "official_url": "meeting.html?mtg_id=1200&date=2026-05-01"
  },
  {
    "id": 678,
    "facility_name": "京都市労働者総合会館",
    "address": "京都市中京区壬生仙念町３０－２",
    "lat": 35.003838,
    "lng": 135.73555,
    "meeting_name": "例会",
    "schedule": "第1･3 土曜日 19:00～21:00",
    "contact_phone": "",
    "prefecture": "京都府",
    "next_date": null,
    "start_time": null,
    "end_time": null,
    "recurrence": null,
    "building_name": null,
    "meeting_type": "通常",
    "official_url": "meeting.html?mtg_id=1198&date=2026-05-01"
  },
  {
    "id": 679,
    "facility_name": "京都市伏見いきいき市民活動センター",
    "address": "京都府京都市伏見区深草加賀屋敷6-2",
    "lat": 34.949554,
    "lng": 135.758148,
    "meeting_name": "例会",
    "schedule": "毎週 金曜日 19:15～20:30 毎週 不定期 09:00～09:00",
    "contact_phone": "",
    "prefecture": "京都府",
    "next_date": null,
    "start_time": null,
    "end_time": null,
    "recurrence": null,
    "building_name": null,
    "meeting_type": "通常",
    "official_url": "http://kyodanren.com/index.html"
  },
  {
    "id": 680,
    "facility_name": "鳳徳会館",
    "address": "京都府京都市北区紫竹東高縄町1",
    "lat": 35.045666,
    "lng": 135.75116,
    "meeting_name": "例会",
    "schedule": "毎週 火曜日 19:00～21:00",
    "contact_phone": "",
    "prefecture": "京都府",
    "next_date": null,
    "start_time": null,
    "end_time": null,
    "recurrence": null,
    "building_name": null,
    "meeting_type": "通常",
    "official_url": "http://kyodanren.com/index.html"
  },
  {
    "id": 681,
    "facility_name": "伏見区役所",
    "address": "京都府京都市伏見区鷹匠町39-2",
    "lat": 34.936039,
    "lng": 135.761414,
    "meeting_name": "例会",
    "schedule": "第1･2･3･4 木曜日 19:00～20:50",
    "contact_phone": "",
    "prefecture": "京都府",
    "next_date": null,
    "start_time": null,
    "end_time": null,
    "recurrence": null,
    "building_name": null,
    "meeting_type": "通常",
    "official_url": "http://kyodanren.com/index.html"
  },
  {
    "id": 682,
    "facility_name": "府営羽束師団地集会所",
    "address": "京都府京都市伏見区羽束師古川町",
    "lat": 34.925011,
    "lng": 135.722885,
    "meeting_name": "例会",
    "schedule": "第5 木曜日 19:00～20:50",
    "contact_phone": "",
    "prefecture": "京都府",
    "next_date": null,
    "start_time": null,
    "end_time": null,
    "recurrence": null,
    "building_name": null,
    "meeting_type": "通常",
    "official_url": "http://kyodanren.com/index.html"
  },
  {
    "id": 683,
    "facility_name": "西院第一区民会館",
    "address": "京都府京都市右京区西院春日町58",
    "lat": 35.00478,
    "lng": 135.729355,
    "meeting_name": "例会",
    "schedule": "第2･3･4･5 月曜日 18:50～20:50",
    "contact_phone": "",
    "prefecture": "京都府",
    "next_date": null,
    "start_time": null,
    "end_time": null,
    "recurrence": null,
    "building_name": null,
    "meeting_type": "通常",
    "official_url": "http://kyodanren.com/index.html"
  },
  {
    "id": 684,
    "facility_name": "島津アリーナ第10会議室",
    "address": "京都府京都市北区大将軍鷹司町",
    "lat": 35.025517,
    "lng": 135.728378,
    "meeting_name": "例会",
    "schedule": "第1 月曜日 18:50～20:50",
    "contact_phone": "",
    "prefecture": "京都府",
    "next_date": null,
    "start_time": null,
    "end_time": null,
    "recurrence": null,
    "building_name": null,
    "meeting_type": "通常",
    "official_url": "http://kyodanren.com/index.html"
  },
  {
    "id": 685,
    "facility_name": "京都市公設民営社会福祉施設みぶ身体障害者福祉会館",
    "address": "京都府京都市中京区壬生坊城町19-4",
    "lat": 35.003906,
    "lng": 135.74585,
    "meeting_name": "例会",
    "schedule": "毎週 木曜日 18:40～20:40",
    "contact_phone": "",
    "prefecture": "京都府",
    "next_date": null,
    "start_time": null,
    "end_time": null,
    "recurrence": null,
    "building_name": null,
    "meeting_type": "通常",
    "official_url": "http://kyodanren.com/index.html"
  },
  {
    "id": 686,
    "facility_name": "宇治市広野公民館",
    "address": "京都府宇治市広野町寺山17-403",
    "lat": 34.872871,
    "lng": 135.78154,
    "meeting_name": "家族会",
    "schedule": "第1 火曜日 19:00～21:00",
    "contact_phone": "",
    "prefecture": "京都府",
    "next_date": null,
    "start_time": null,
    "end_time": null,
    "recurrence": null,
    "building_name": null,
    "meeting_type": "家族会",
    "official_url": "http://kyodanren.com/index.html"
  },
  {
    "id": 687,
    "facility_name": "宇治公民館",
    "address": "京都府宇治市里尻71-9",
    "lat": 34.884445,
    "lng": 135.799728,
    "meeting_name": "例会",
    "schedule": "毎週 金曜日 19:00～21:00",
    "contact_phone": "",
    "prefecture": "京都府",
    "next_date": null,
    "start_time": null,
    "end_time": null,
    "recurrence": null,
    "building_name": null,
    "meeting_type": "通常",
    "official_url": "http://kyodanren.com/index.html"
  },
  {
    "id": 688,
    "facility_name": "京都市こころの健康増進センター　2階",
    "address": "京都府京都市中京区壬生仙念町30",
    "lat": 35.003838,
    "lng": 135.73555,
    "meeting_name": "みやび家族昼例会",
    "schedule": "第2 火曜日 14:00～15:30 祝日や年始年末は会場都合でお休みになる場合があります。毎月のみやちゃんカレンダーをご参照ください。",
    "contact_phone": "",
    "prefecture": "京都府",
    "next_date": null,
    "start_time": null,
    "end_time": null,
    "recurrence": null,
    "building_name": null,
    "meeting_type": "家族会",
    "official_url": "http://danshu-heian.net/cart"
  },
  {
    "id": 689,
    "facility_name": "京都市みぶ障害者福祉会館",
    "address": "京都府京都市中京区壬生坊城町１９−４",
    "lat": 35.003906,
    "lng": 135.74585,
    "meeting_name": "中京支部家族会",
    "schedule": "第3 火曜日 18:40～20:40",
    "contact_phone": "",
    "prefecture": "京都府",
    "next_date": null,
    "start_time": null,
    "end_time": null,
    "recurrence": null,
    "building_name": null,
    "meeting_type": "家族会",
    "official_url": "http://danshu-heian.net/cart"
  },
  {
    "id": 690,
    "facility_name": "鳳徳会館",
    "address": "京都府京都市北区紫竹東高縄町１",
    "lat": 35.045666,
    "lng": 135.75116,
    "meeting_name": "北山支部家族例会",
    "schedule": "第4 火曜日 19:00～21:00",
    "contact_phone": "",
    "prefecture": "京都府",
    "next_date": null,
    "start_time": null,
    "end_time": null,
    "recurrence": null,
    "building_name": null,
    "meeting_type": "家族会",
    "official_url": "http://danshu-heian.net/cart"
  },
  {
    "id": 691,
    "facility_name": "中京いきいき市民活動センター",
    "address": "京都市中京区西ノ京新建町12番地の34",
    "lat": 35.008747,
    "lng": 135.732849,
    "meeting_name": "右京支部家族例会",
    "schedule": "第1 月曜日 18:50～20:50",
    "contact_phone": "",
    "prefecture": "京都府",
    "next_date": null,
    "start_time": null,
    "end_time": null,
    "recurrence": null,
    "building_name": null,
    "meeting_type": "家族会",
    "official_url": "http://danshu-heian.net/cart"
  },
  {
    "id": 692,
    "facility_name": "城南勤労福祉会館3階",
    "address": "京都府宇治市伊勢田町新中ノ荒２１−８",
    "lat": 34.880421,
    "lng": 135.771347,
    "meeting_name": "大久保支部家族会",
    "schedule": "第1 火曜日 19:00～21:00",
    "contact_phone": "",
    "prefecture": "京都府",
    "next_date": null,
    "start_time": null,
    "end_time": null,
    "recurrence": null,
    "building_name": null,
    "meeting_type": "家族会",
    "official_url": "http://danshu-heian.net/cart"
  },
  {
    "id": 693,
    "facility_name": "木幡公民館",
    "address": "京都府宇治市木幡内畑３４−７",
    "lat": 34.924786,
    "lng": 135.795471,
    "meeting_name": "宇治支部家族会",
    "schedule": "第3 金曜日 19:00～21:00",
    "contact_phone": "",
    "prefecture": "京都府",
    "next_date": null,
    "start_time": null,
    "end_time": null,
    "recurrence": null,
    "building_name": null,
    "meeting_type": "家族会",
    "official_url": "http://danshu-heian.net/cart"
  },
  {
    "id": 694,
    "facility_name": "京都市山科身体障害者福祉センター",
    "address": "京都市山科区竹鼻四丁野町34-1",
    "lat": 34.986221,
    "lng": 135.816452,
    "meeting_name": "山科支部家族例会",
    "schedule": "第4 木曜日 18:40～20:40",
    "contact_phone": "",
    "prefecture": "京都府",
    "next_date": null,
    "start_time": null,
    "end_time": null,
    "recurrence": null,
    "building_name": null,
    "meeting_type": "家族会",
    "official_url": "http://danshu-heian.net/cart"
  },
  {
    "id": 695,
    "facility_name": "左京西部いきいき市民活動センター",
    "address": "京都市左京区田中玄京町149",
    "lat": 35.032257,
    "lng": 135.776489,
    "meeting_name": "左京支部家族会",
    "schedule": "第1 金曜日 18:40～20:40",
    "contact_phone": "",
    "prefecture": "京都府",
    "next_date": null,
    "start_time": null,
    "end_time": null,
    "recurrence": null,
    "building_name": null,
    "meeting_type": "家族会",
    "official_url": "http://danshu-heian.net/cart"
  },
  {
    "id": 696,
    "facility_name": "ひとまち交流会館",
    "address": "京都市下京区西木屋町通上ノ口上る梅湊町83-1",
    "lat": 34.992924,
    "lng": 135.72995,
    "meeting_name": "本部家族例会",
    "schedule": "第3 水曜日 19:00～20:40",
    "contact_phone": "",
    "prefecture": "京都府",
    "next_date": null,
    "start_time": null,
    "end_time": null,
    "recurrence": null,
    "building_name": null,
    "meeting_type": "家族会",
    "official_url": "http://danshu-heian.net/cart"
  },
  {
    "id": 697,
    "facility_name": "やすらぎふれあい館",
    "address": "京都市東山区五条通大和大路東入. 5丁目梅林町576-5",
    "lat": 34.995384,
    "lng": 135.771057,
    "meeting_name": "東山支部家族例会",
    "schedule": "第4 月曜日 18:30～20:30",
    "contact_phone": "",
    "prefecture": "京都府",
    "next_date": null,
    "start_time": null,
    "end_time": null,
    "recurrence": null,
    "building_name": null,
    "meeting_type": "家族会",
    "official_url": "http://danshu-heian.net/cart"
  },
  {
    "id": 698,
    "facility_name": "桂会館",
    "address": "京都府京都市西京区桂木ノ下町１−８６",
    "lat": 34.981339,
    "lng": 135.705292,
    "meeting_name": "桂支部家族会",
    "schedule": "",
    "contact_phone": "",
    "prefecture": "京都府",
    "next_date": null,
    "start_time": null,
    "end_time": null,
    "recurrence": null,
    "building_name": null,
    "meeting_type": "家族会",
    "official_url": "http://danshu-heian.net/cart"
  },
  {
    "id": 699,
    "facility_name": "京都市障害者スポーツセンター",
    "address": "京都府京都市左京区高野玉岡町５",
    "lat": 35.045525,
    "lng": 135.78331,
    "meeting_name": "葵支部家族例会",
    "schedule": "第2 月曜日 18:30～20:30",
    "contact_phone": "",
    "prefecture": "京都府",
    "next_date": null,
    "start_time": null,
    "end_time": null,
    "recurrence": null,
    "building_name": null,
    "meeting_type": "家族会",
    "official_url": "http://danshu-heian.net/cart"
  },
  {
    "id": 700,
    "facility_name": "洛西境谷会館",
    "address": "京都府京都市西京区大原野西境谷町１４−１６",
    "lat": 34.963455,
    "lng": 135.667358,
    "meeting_name": "西山支部家族会",
    "schedule": "第1 土曜日 18:30～20:30",
    "contact_phone": "",
    "prefecture": "京都府",
    "next_date": null,
    "start_time": null,
    "end_time": null,
    "recurrence": null,
    "building_name": null,
    "meeting_type": "家族会",
    "official_url": "http://danshu-heian.net/cart"
  },
  {
    "id": 701,
    "facility_name": "西陣織会館",
    "address": "京都府京都市上京区竪門前町４１４",
    "lat": 35.028973,
    "lng": 135.75119,
    "meeting_name": "西陣支部家族会",
    "schedule": "第2 土曜日 18:50～20:50",
    "contact_phone": "",
    "prefecture": "京都府",
    "next_date": null,
    "start_time": null,
    "end_time": null,
    "recurrence": null,
    "building_name": null,
    "meeting_type": "家族会",
    "official_url": "http://danshu-heian.net/cart"
  },
  {
    "id": 702,
    "facility_name": "長岡京市立産業文化会館",
    "address": "長岡京市開田3丁目10－16",
    "lat": 34.923702,
    "lng": 135.693954,
    "meeting_name": "長岡京支部家族会",
    "schedule": "第3 月曜日 18:50～20:50",
    "contact_phone": "",
    "prefecture": "京都府",
    "next_date": null,
    "start_time": null,
    "end_time": null,
    "recurrence": null,
    "building_name": null,
    "meeting_type": "家族会",
    "official_url": "http://danshu-heian.net/cart"
  },
  {
    "id": 703,
    "facility_name": "京都身体障害者福祉センター",
    "address": "京都府京都市山科区竹鼻4丁野町34-1",
    "lat": 34.986221,
    "lng": 135.816452,
    "meeting_name": "例会",
    "schedule": "毎週 木曜日 18:40～20:40",
    "contact_phone": "",
    "prefecture": "京都府",
    "next_date": null,
    "start_time": null,
    "end_time": null,
    "recurrence": null,
    "building_name": null,
    "meeting_type": "通常",
    "official_url": "http://kyodanren.com/index.html"
  },
  {
    "id": 704,
    "facility_name": "京都市左京区西部いきいき市民活動センター",
    "address": "京都府京都市左京区田中玄京町149",
    "lat": 35.032257,
    "lng": 135.776489,
    "meeting_name": "例会",
    "schedule": "毎週 金曜日 18:40～20:40",
    "contact_phone": "",
    "prefecture": "京都府",
    "next_date": null,
    "start_time": null,
    "end_time": null,
    "recurrence": null,
    "building_name": null,
    "meeting_type": "通常",
    "official_url": "http://kyodanren.com/index.html"
  },
  {
    "id": 705,
    "facility_name": "京都市こころの健康増進センター",
    "address": "京都市中京区壬生仙念町３０",
    "lat": 35.003838,
    "lng": 135.73555,
    "meeting_name": "みやび家族昼例会",
    "schedule": "第2 火曜日 14:00～15:30",
    "contact_phone": "",
    "prefecture": "京都府",
    "next_date": null,
    "start_time": null,
    "end_time": null,
    "recurrence": null,
    "building_name": null,
    "meeting_type": "家族会",
    "official_url": "http://kyodanren.com/index.html"
  },
  {
    "id": 706,
    "facility_name": "ひとまち交流館京都※",
    "address": "京都府京都市下京区西木屋町通上ノ口上る梅湊町83-1",
    "lat": 34.992924,
    "lng": 135.72995,
    "meeting_name": "アメシスト例会",
    "schedule": "第3 水曜日 19:00～21:00",
    "contact_phone": "",
    "prefecture": "京都府",
    "next_date": null,
    "start_time": null,
    "end_time": null,
    "recurrence": null,
    "building_name": null,
    "meeting_type": "女性(アメシスト)",
    "official_url": "http://kyodanren.com/index.html"
  },
  {
    "id": 707,
    "facility_name": "山城北保健所　綴喜分室",
    "address": "京都府京田辺市田辺明田1番地",
    "lat": 34.823044,
    "lng": 135.769211,
    "meeting_name": "平安会南部昼例会",
    "schedule": "第1 金曜日 14:00～16:00",
    "contact_phone": "",
    "prefecture": "京都府",
    "next_date": null,
    "start_time": null,
    "end_time": null,
    "recurrence": null,
    "building_name": null,
    "meeting_type": "通常",
    "official_url": "http://danshu-heian.net/"
  },
  {
    "id": 708,
    "facility_name": "ゆめりあうじ　四階会議室",
    "address": "京都府宇治市宇治里尻５－９",
    "lat": 34.890545,
    "lng": 135.801376,
    "meeting_name": "お酒の悩み相談室in宇治",
    "schedule": "第2 火曜日 13:30～16:00 当日が祝日の場合は前後どちらかの週に変更されます。",
    "contact_phone": "",
    "prefecture": "京都府",
    "next_date": null,
    "start_time": null,
    "end_time": null,
    "recurrence": null,
    "building_name": null,
    "meeting_type": "その他",
    "official_url": "http://kyodanren.com/index.html"
  },
  {
    "id": 709,
    "facility_name": "京都市醍醐交流会館",
    "address": "京都府京都市伏見区醍醐高畑町３０−１ パセオ・ダイゴロー西館2F",
    "lat": 34.949467,
    "lng": 135.808624,
    "meeting_name": "お酒の悩み相談室in醍醐",
    "schedule": "第4 金曜日 13:30～16:00",
    "contact_phone": "",
    "prefecture": "京都府",
    "next_date": null,
    "start_time": null,
    "end_time": null,
    "recurrence": null,
    "building_name": null,
    "meeting_type": "その他",
    "official_url": "http://kyodanren.com/index.html"
  },
  {
    "id": 710,
    "facility_name": "やすらぎ・ふれあい館",
    "address": "京都府京都市東山区 梅林町５７６",
    "lat": 34.995182,
    "lng": 135.775894,
    "meeting_name": "家族会",
    "schedule": "第4 月曜日 18:30～20:30",
    "contact_phone": "",
    "prefecture": "京都府",
    "next_date": null,
    "start_time": null,
    "end_time": null,
    "recurrence": null,
    "building_name": null,
    "meeting_type": "家族会",
    "official_url": "http://kyodanren.com/index.html"
  },
  {
    "id": 711,
    "facility_name": "桂会館",
    "address": "京都府京都市西京区桂木ノ下町1-86",
    "lat": 34.981339,
    "lng": 135.705292,
    "meeting_name": "例会",
    "schedule": "毎週 土曜日 19:00～21:00",
    "contact_phone": "",
    "prefecture": "京都府",
    "next_date": null,
    "start_time": null,
    "end_time": null,
    "recurrence": null,
    "building_name": null,
    "meeting_type": "通常",
    "official_url": "http://kyodanren.com/index.html"
  },
  {
    "id": 712,
    "facility_name": "北いきいき市民活動センター",
    "address": "京都府京都市北区紫野北花ノ坊町18",
    "lat": 35.042404,
    "lng": 135.737671,
    "meeting_name": "例会",
    "schedule": "毎週 木曜日 18:50～20:50",
    "contact_phone": "",
    "prefecture": "京都府",
    "next_date": null,
    "start_time": null,
    "end_time": null,
    "recurrence": null,
    "building_name": null,
    "meeting_type": "通常",
    "official_url": "http://kyodanren.com/index.html"
  },
  {
    "id": 713,
    "facility_name": "新田町会館",
    "address": "京都府京都市南区吉祥院三ノ宮西町松尾神社北側",
    "lat": 34.976524,
    "lng": 135.726578,
    "meeting_name": "例会",
    "schedule": "毎週 金曜日 19:00～21:00",
    "contact_phone": "",
    "prefecture": "京都府",
    "next_date": null,
    "start_time": null,
    "end_time": null,
    "recurrence": null,
    "building_name": null,
    "meeting_type": "通常",
    "official_url": "http://kyodanren.com/index.html"
  },
  {
    "id": 714,
    "facility_name": "向日市寺戸コミュニティセンター",
    "address": "京都府向日市寺戸町山縄手11-3",
    "lat": 34.955879,
    "lng": 135.707703,
    "meeting_name": "例会",
    "schedule": "第1･3 火曜日 19:00～21:00",
    "contact_phone": "",
    "prefecture": "京都府",
    "next_date": null,
    "start_time": null,
    "end_time": null,
    "recurrence": null,
    "building_name": null,
    "meeting_type": "通常",
    "official_url": "http://kyodanren.com/index.html"
  },
  {
    "id": 715,
    "facility_name": "向日市コミュニティセンター",
    "address": "京都府向日市向日町南山3-3",
    "lat": 34.943405,
    "lng": 135.698441,
    "meeting_name": "例会",
    "schedule": "第2･4 火曜日 19:00～21:00",
    "contact_phone": "",
    "prefecture": "京都府",
    "next_date": null,
    "start_time": null,
    "end_time": null,
    "recurrence": null,
    "building_name": null,
    "meeting_type": "通常",
    "official_url": "http://kyodanren.com/index.html"
  },
  {
    "id": 716,
    "facility_name": "京田辺市社会福祉センター",
    "address": "京都府京田辺市興戸犬伏5-8",
    "lat": 34.813362,
    "lng": 135.772141,
    "meeting_name": "例会",
    "schedule": "毎週 月曜日 19:00～21:00",
    "contact_phone": "",
    "prefecture": "京都府",
    "next_date": null,
    "start_time": null,
    "end_time": null,
    "recurrence": null,
    "building_name": null,
    "meeting_type": "通常",
    "official_url": "http://kyodanren.com/index.html"
  },
  {
    "id": 717,
    "facility_name": "クアスポロ丹波勤労者福祉会館",
    "address": "京都府南丹市八木町西田金井畠9",
    "lat": 35.074024,
    "lng": 135.537949,
    "meeting_name": "例会",
    "schedule": "毎週 木曜日 19:00～21:00",
    "contact_phone": "",
    "prefecture": "京都府",
    "next_date": null,
    "start_time": null,
    "end_time": null,
    "recurrence": null,
    "building_name": null,
    "meeting_type": "通常",
    "official_url": "http://kyodanren.com/index.html"
  },
  {
    "id": 718,
    "facility_name": "京都市障害者スポーツセンター",
    "address": "京都府京都市左京区玉野玉岡町5",
    "lat": 35.048603,
    "lng": 135.778534,
    "meeting_name": "例会",
    "schedule": "毎週 月曜日 18:30～20:30",
    "contact_phone": "",
    "prefecture": "京都府",
    "next_date": null,
    "start_time": null,
    "end_time": null,
    "recurrence": null,
    "building_name": null,
    "meeting_type": "通常",
    "official_url": "http://kyodanren.com/index.html"
  },
  {
    "id": 719,
    "facility_name": "洛西境谷会館",
    "address": "京都府京都市西京区大原野西境谷町2丁目14-16",
    "lat": 34.962212,
    "lng": 135.668976,
    "meeting_name": "例会",
    "schedule": "毎週 土曜日 18:30～20:30",
    "contact_phone": "",
    "prefecture": "京都府",
    "next_date": null,
    "start_time": null,
    "end_time": null,
    "recurrence": null,
    "building_name": null,
    "meeting_type": "通常",
    "official_url": "http://kyodanren.com/index.html"
  },
  {
    "id": 720,
    "facility_name": "長岡京市立産業文化会館",
    "address": "京都府長岡京市開田3丁目10-16",
    "lat": 34.923702,
    "lng": 135.693954,
    "meeting_name": "例会",
    "schedule": "第1･2･3 月曜日 18:50～20:50",
    "contact_phone": "",
    "prefecture": "京都府",
    "next_date": null,
    "start_time": null,
    "end_time": null,
    "recurrence": null,
    "building_name": null,
    "meeting_type": "通常",
    "official_url": "http://kyodanren.com/index.html"
  },
  {
    "id": 721,
    "facility_name": "長岡京市中央生涯学習センター",
    "address": "京都府長岡京市神足2丁目3-1",
    "lat": 34.922722,
    "lng": 135.699707,
    "meeting_name": "例会",
    "schedule": "第4･5 月曜日 18:50～20:50",
    "contact_phone": "",
    "prefecture": "京都府",
    "next_date": null,
    "start_time": null,
    "end_time": null,
    "recurrence": null,
    "building_name": null,
    "meeting_type": "通常",
    "official_url": "http://kyodanren.com/index.html"
  },
  {
    "id": 722,
    "facility_name": "泉大津総合福祉センター",
    "address": "大阪府泉大津市東雲町9-15",
    "lat": 34.50523,
    "lng": 135.4104,
    "meeting_name": "家族会",
    "schedule": "第1 水曜日 19:00～20:50 祝日除く",
    "contact_phone": "",
    "prefecture": "大阪府",
    "next_date": null,
    "start_time": null,
    "end_time": null,
    "recurrence": null,
    "building_name": null,
    "meeting_type": "家族会",
    "official_url": "http://oosakafudann.sunnyday.jp/例会場案内/#i-8"
  },
  {
    "id": 723,
    "facility_name": "フェニックス会ワンデイ",
    "address": "大阪府高石市取石1丁目7-6",
    "lat": 34.523964,
    "lng": 135.45372,
    "meeting_name": "昼例会",
    "schedule": "第1 月曜日 13:00～15:00",
    "contact_phone": "",
    "prefecture": "大阪府",
    "next_date": null,
    "start_time": null,
    "end_time": null,
    "recurrence": null,
    "building_name": null,
    "meeting_type": "通常",
    "official_url": "http://oosakafudann.sunnyday.jp/例会場案内/#i-8"
  },
  {
    "id": 724,
    "facility_name": "交野市 保健福祉総合センター",
    "address": "大阪府交野市天野が原町5丁目5-1",
    "lat": 34.775951,
    "lng": 135.682541,
    "meeting_name": "昼例会",
    "schedule": "毎週 土曜日 14:00～16:00 祝日除く",
    "contact_phone": "",
    "prefecture": "大阪府",
    "next_date": null,
    "start_time": null,
    "end_time": null,
    "recurrence": null,
    "building_name": null,
    "meeting_type": "通常",
    "official_url": "http://www.geocities.jp/katano_d/top.html"
  },
  {
    "id": 725,
    "facility_name": "八尾保健所",
    "address": "大阪府八尾市清水町1丁目2-5",
    "lat": 34.625702,
    "lng": 135.60199,
    "meeting_name": "昼例会",
    "schedule": "第2･4 木曜日 14:00～16:00",
    "contact_phone": "",
    "prefecture": "大阪府",
    "next_date": null,
    "start_time": null,
    "end_time": null,
    "recurrence": null,
    "building_name": null,
    "meeting_type": "通常",
    "official_url": "http://oosakafudann.sunnyday.jp/例会場案内/#i-5"
  },
  {
    "id": 726,
    "facility_name": "山本コミュニティセンター",
    "address": "大阪府八尾市山本町1丁目8-11",
    "lat": 34.628197,
    "lng": 135.62117,
    "meeting_name": "東支部例会",
    "schedule": "第1･3･5 金曜日 19:00～20:45",
    "contact_phone": "",
    "prefecture": "大阪府",
    "next_date": null,
    "start_time": null,
    "end_time": null,
    "recurrence": null,
    "building_name": null,
    "meeting_type": "通常",
    "official_url": "http://oosakafudann.sunnyday.jp/例会場案内/#i-5"
  },
  {
    "id": 727,
    "facility_name": "堅下合同会館",
    "address": "大阪府柏原市大県3丁目9-19",
    "lat": 34.588982,
    "lng": 135.628769,
    "meeting_name": "柏原地区例会",
    "schedule": "第1･3 木曜日 19:00～20:30",
    "contact_phone": "",
    "prefecture": "大阪府",
    "next_date": null,
    "start_time": null,
    "end_time": null,
    "recurrence": null,
    "building_name": null,
    "meeting_type": "通常",
    "official_url": "http://oosakafudann.sunnyday.jp/例会場案内/#i-5"
  },
  {
    "id": 728,
    "facility_name": "安中会館",
    "address": "大阪府八尾市安中町1丁目6-15",
    "lat": 34.618675,
    "lng": 135.597382,
    "meeting_name": "西支部例会",
    "schedule": "第2･4 金曜日 19:00～20:45",
    "contact_phone": "",
    "prefecture": "大阪府",
    "next_date": null,
    "start_time": null,
    "end_time": null,
    "recurrence": null,
    "building_name": null,
    "meeting_type": "通常",
    "official_url": "http://oosakafudann.sunnyday.jp/例会場案内/#i-5"
  },
  {
    "id": 729,
    "facility_name": "和泉図書館",
    "address": "大阪府和泉市府中町1丁目20-1",
    "lat": 34.48687,
    "lng": 135.423203,
    "meeting_name": "アメシスト例会",
    "schedule": "第3 水曜日 13:30～15:30",
    "contact_phone": "",
    "prefecture": "大阪府",
    "next_date": null,
    "start_time": null,
    "end_time": null,
    "recurrence": null,
    "building_name": null,
    "meeting_type": "女性(アメシスト)",
    "official_url": "http://oosakafudann.sunnyday.jp/大阪アメシスト/"
  },
  {
    "id": 730,
    "facility_name": "古市集会所",
    "address": "大阪府羽曳野市古市1丁目3-14",
    "lat": 34.553391,
    "lng": 135.610428,
    "meeting_name": "例会",
    "schedule": "第1 木曜日 19:00～20:45",
    "contact_phone": "",
    "prefecture": "大阪府",
    "next_date": null,
    "start_time": null,
    "end_time": null,
    "recurrence": null,
    "building_name": null,
    "meeting_type": "通常",
    "official_url": "http://oosakafudann.sunnyday.jp/例会場案内/#i-7"
  },
  {
    "id": 731,
    "facility_name": "河内長野市ラブリーホール",
    "address": "大阪府河内長野市西代町12-46",
    "lat": 34.453407,
    "lng": 135.566895,
    "meeting_name": "昼例会",
    "schedule": "第2 木曜日 13:30～15:30",
    "contact_phone": "",
    "prefecture": "大阪府",
    "next_date": null,
    "start_time": null,
    "end_time": null,
    "recurrence": null,
    "building_name": null,
    "meeting_type": "通常",
    "official_url": "http://oosakafudann.sunnyday.jp/例会場案内/#i-7"
  },
  {
    "id": 732,
    "facility_name": "吹田市立市民公益活動センター",
    "address": "大阪府吹田市津雲台1丁目2-1千里ニュータウンプラザ6階",
    "lat": 34.794083,
    "lng": 135.508316,
    "meeting_name": "南千里支部例会",
    "schedule": "第1･3･5 木曜日 19:00～20:30",
    "contact_phone": "",
    "prefecture": "大阪府",
    "next_date": null,
    "start_time": null,
    "end_time": null,
    "recurrence": null,
    "building_name": null,
    "meeting_type": "通常",
    "official_url": "http://suitashi-danshukai.net"
  },
  {
    "id": 733,
    "facility_name": "南千里地区公民館",
    "address": "大阪府吹田市津雲台1丁目2-1千里ニュータウンプラザ7階",
    "lat": 34.794083,
    "lng": 135.508316,
    "meeting_name": "南千里支部例会",
    "schedule": "第2･4 木曜日 19:00～20:30",
    "contact_phone": "",
    "prefecture": "大阪府",
    "next_date": null,
    "start_time": null,
    "end_time": null,
    "recurrence": null,
    "building_name": null,
    "meeting_type": "通常",
    "official_url": "http://suitashi-danshukai.net"
  },
  {
    "id": 734,
    "facility_name": "吹田市立総合福祉会館",
    "address": "大阪府吹田市出口町19-2",
    "lat": 34.763977,
    "lng": 135.514755,
    "meeting_name": "吹田支部例会",
    "schedule": "第2･4･5 土曜日 19:00～21:00",
    "contact_phone": "",
    "prefecture": "大阪府",
    "next_date": null,
    "start_time": null,
    "end_time": null,
    "recurrence": null,
    "building_name": null,
    "meeting_type": "通常",
    "official_url": "http://suitashi-danshukai.net"
  },
  {
    "id": 735,
    "facility_name": "吹田市立会館勤労者会館",
    "address": "大阪府吹田市昭和町12-1",
    "lat": 34.762451,
    "lng": 135.527008,
    "meeting_name": "吹田支部例会",
    "schedule": "第3 土曜日 19:00～21:00",
    "contact_phone": "",
    "prefecture": "大阪府",
    "next_date": null,
    "start_time": null,
    "end_time": null,
    "recurrence": null,
    "building_name": null,
    "meeting_type": "通常",
    "official_url": "http://suitashi-danshukai.net"
  },
  {
    "id": 736,
    "facility_name": "人権文化センター",
    "address": "大阪府和泉市伯太町6丁目1-20",
    "lat": 34.497471,
    "lng": 135.432938,
    "meeting_name": "信太支部例会",
    "schedule": "毎週 月曜日 19:00～20:45",
    "contact_phone": "",
    "prefecture": "大阪府",
    "next_date": null,
    "start_time": null,
    "end_time": null,
    "recurrence": null,
    "building_name": null,
    "meeting_type": "通常",
    "official_url": "http://oosakafudann.sunnyday.jp/例会場案内/#i-8"
  },
  {
    "id": 737,
    "facility_name": "堺市総合福祉会館",
    "address": "大阪府堺市堺区南瓦町2-1",
    "lat": 34.573563,
    "lng": 135.479965,
    "meeting_name": "合同家族会",
    "schedule": "第2 水曜日 13:00～16:00",
    "contact_phone": "",
    "prefecture": "大阪府",
    "next_date": null,
    "start_time": null,
    "end_time": null,
    "recurrence": null,
    "building_name": null,
    "meeting_type": "家族会",
    "official_url": "http://www.dansyukai.jp/index.html"
  },
  {
    "id": 738,
    "facility_name": "堺保健センター３F",
    "address": "大阪府堺市堺区南瓦町3番1号",
    "lat": 34.573673,
    "lng": 135.482986,
    "meeting_name": "例会",
    "schedule": "第1･2･3･4 金曜日 18:40～20:40",
    "contact_phone": "",
    "prefecture": "大阪府",
    "next_date": null,
    "start_time": null,
    "end_time": null,
    "recurrence": null,
    "building_name": null,
    "meeting_type": "通常",
    "official_url": "http://www.dansyukai.jp/index.html"
  },
  {
    "id": 739,
    "facility_name": "萩原町会会館",
    "address": "大阪府堺市東区日置荘西町3丁27-14",
    "lat": 34.540901,
    "lng": 135.533844,
    "meeting_name": "東地域",
    "schedule": "第3 木曜日 13:00～15:00",
    "contact_phone": "",
    "prefecture": "大阪府",
    "next_date": null,
    "start_time": null,
    "end_time": null,
    "recurrence": null,
    "building_name": null,
    "meeting_type": "通常",
    "official_url": "http://www.dansyukai.jp/index.html"
  },
  {
    "id": 740,
    "facility_name": "国際障害者交流センター(ビッグ・アイ)",
    "address": "大阪府堺市南区茶山台1-8-1",
    "lat": 34.495628,
    "lng": 135.512878,
    "meeting_name": "泉ヶ丘地域",
    "schedule": "第2 木曜日 13:30～15:30",
    "contact_phone": "",
    "prefecture": "大阪府",
    "next_date": null,
    "start_time": null,
    "end_time": null,
    "recurrence": null,
    "building_name": null,
    "meeting_type": "通常",
    "official_url": "http://www.dansyukai.jp/index.html"
  },
  {
    "id": 741,
    "facility_name": "美原総合福祉会館",
    "address": "大阪府堺市美原区黒山782-10",
    "lat": 34.53965,
    "lng": 135.556351,
    "meeting_name": "美原地域",
    "schedule": "第1･3 水曜日 13:00～15:00",
    "contact_phone": "",
    "prefecture": "大阪府",
    "next_date": null,
    "start_time": null,
    "end_time": null,
    "recurrence": null,
    "building_name": null,
    "meeting_type": "通常",
    "official_url": "http://www.dansyukai.jp/index.html"
  },
  {
    "id": 742,
    "facility_name": "野田会館",
    "address": "大阪府堺市西区鳳東町5丁429-1",
    "lat": 34.533146,
    "lng": 135.460785,
    "meeting_name": "西地域",
    "schedule": "第2 月曜日 13:00～15:00",
    "contact_phone": "",
    "prefecture": "大阪府",
    "next_date": null,
    "start_time": null,
    "end_time": null,
    "recurrence": null,
    "building_name": null,
    "meeting_type": "通常",
    "official_url": "http://www.dansyukai.jp/index.html"
  },
  {
    "id": 743,
    "facility_name": "堺市東保健センター(東区役所内)",
    "address": "大阪府堺市東区日置荘原寺町195-1",
    "lat": 34.538452,
    "lng": 135.536819,
    "meeting_name": "例会",
    "schedule": "毎週 月曜日 18:40～20:40",
    "contact_phone": "",
    "prefecture": "大阪府",
    "next_date": null,
    "start_time": null,
    "end_time": null,
    "recurrence": null,
    "building_name": null,
    "meeting_type": "通常",
    "official_url": "http://www.dansyukai.jp/index.html"
  },
  {
    "id": 744,
    "facility_name": "堺市南保健センター(南区役所内)",
    "address": "大阪府堺市南区桃山台1丁1-1",
    "lat": 34.486538,
    "lng": 135.490402,
    "meeting_name": "例会",
    "schedule": "毎週 月曜日 18:40～20:40",
    "contact_phone": "",
    "prefecture": "大阪府",
    "next_date": null,
    "start_time": null,
    "end_time": null,
    "recurrence": null,
    "building_name": null,
    "meeting_type": "通常",
    "official_url": "http://www.dansyukai.jp/index.html"
  },
  {
    "id": 745,
    "facility_name": "堺市中保健センター(中区役所内)",
    "address": "大阪府堺市中区深井沢町2470-7",
    "lat": 34.528427,
    "lng": 135.498566,
    "meeting_name": "例会",
    "schedule": "毎週 火曜日 18:40～20:40",
    "contact_phone": "",
    "prefecture": "大阪府",
    "next_date": null,
    "start_time": null,
    "end_time": null,
    "recurrence": null,
    "building_name": null,
    "meeting_type": "通常",
    "official_url": "http://www.dansyukai.jp/index.html"
  },
  {
    "id": 746,
    "facility_name": "堺市美原保健センター",
    "address": "大阪府堺市美原区黒山782-11",
    "lat": 34.53965,
    "lng": 135.556351,
    "meeting_name": "例会",
    "schedule": "毎週 水曜日 18:40～20:40",
    "contact_phone": "",
    "prefecture": "大阪府",
    "next_date": null,
    "start_time": null,
    "end_time": null,
    "recurrence": null,
    "building_name": null,
    "meeting_type": "通常",
    "official_url": "http://www.dansyukai.jp/index.html"
  },
  {
    "id": 747,
    "facility_name": "堺市北保健センター(北区役所内)",
    "address": "大阪府堺市北区金岡町5丁目1-4",
    "lat": 34.556915,
    "lng": 135.51889,
    "meeting_name": "例会",
    "schedule": "毎週 金曜日 18:40～20:40",
    "contact_phone": "",
    "prefecture": "大阪府",
    "next_date": null,
    "start_time": null,
    "end_time": null,
    "recurrence": null,
    "building_name": null,
    "meeting_type": "通常",
    "official_url": "http://www.dansyukai.jp/index.html"
  },
  {
    "id": 748,
    "facility_name": "堺市西保健センター(鳳保健文化センター内)",
    "address": "大阪府堺市西区鳳南町4丁444-1",
    "lat": 34.527512,
    "lng": 135.461945,
    "meeting_name": "例会",
    "schedule": "毎週 金曜日 18:40～20:40",
    "contact_phone": "",
    "prefecture": "大阪府",
    "next_date": null,
    "start_time": null,
    "end_time": null,
    "recurrence": null,
    "building_name": null,
    "meeting_type": "通常",
    "official_url": "http://www.dansyukai.jp/index.html"
  },
  {
    "id": 749,
    "facility_name": "浜寺三光会館",
    "address": "大阪府堺市西区浜寺諏訪森町中2丁219",
    "lat": 34.549347,
    "lng": 135.448807,
    "meeting_name": "石津川支部例会",
    "schedule": "第1･3･4 土曜日 18:40～20:40",
    "contact_phone": "",
    "prefecture": "大阪府",
    "next_date": null,
    "start_time": null,
    "end_time": null,
    "recurrence": null,
    "building_name": null,
    "meeting_type": "通常",
    "official_url": "http://www.dansyukai.jp/index.html"
  },
  {
    "id": 750,
    "facility_name": "大東市立総合福祉センター",
    "address": "大阪府大東市新町13-13",
    "lat": 34.703465,
    "lng": 135.623901,
    "meeting_name": "例会",
    "schedule": "毎週 土曜日 19:00～20:45 祝日除く",
    "contact_phone": "",
    "prefecture": "大阪府",
    "next_date": null,
    "start_time": null,
    "end_time": null,
    "recurrence": null,
    "building_name": null,
    "meeting_type": "通常",
    "official_url": "http://www.geocities.jp/katano_d/guide.html"
  },
  {
    "id": 751,
    "facility_name": "リカバリハウスいちご長居",
    "address": "大阪府大阪市住吉区長居東4丁目6-15-302",
    "lat": 34.609806,
    "lng": 135.513412,
    "meeting_name": "アメシスト例会",
    "schedule": "第3 土曜日 14:00～16:00",
    "contact_phone": "",
    "prefecture": "大阪府",
    "next_date": null,
    "start_time": null,
    "end_time": null,
    "recurrence": null,
    "building_name": null,
    "meeting_type": "女性(アメシスト)",
    "official_url": "http://osakashidanshurengoukai.web.fc2.com/jimukyoku.html"
  },
  {
    "id": 752,
    "facility_name": "住吉公園集会所",
    "address": "大阪府大阪市住之江区浜口西1丁目",
    "lat": 34.612553,
    "lng": 135.485367,
    "meeting_name": "例会",
    "schedule": "第2･3･4･5 土曜日 19:00～20:45",
    "contact_phone": "",
    "prefecture": "大阪府",
    "next_date": null,
    "start_time": null,
    "end_time": null,
    "recurrence": null,
    "building_name": null,
    "meeting_type": "通常",
    "official_url": "http://osakashidanshurengoukai.web.fc2.com/jimukyoku.html"
  },
  {
    "id": 753,
    "facility_name": "住吉区民センター",
    "address": "大阪府大阪市住吉区南住吉3丁目15-56",
    "lat": 34.60461,
    "lng": 135.500015,
    "meeting_name": "例会",
    "schedule": "第1･2･3･4 金曜日 19:00～20:45",
    "contact_phone": "",
    "prefecture": "大阪府",
    "next_date": null,
    "start_time": null,
    "end_time": null,
    "recurrence": null,
    "building_name": null,
    "meeting_type": "通常",
    "official_url": "http://osakashidanshurengoukai.web.fc2.com/jimukyoku.html"
  },
  {
    "id": 754,
    "facility_name": "大淀コミュニティセンター",
    "address": "大阪府大阪市北区本庄東3丁目8-2",
    "lat": 34.715591,
    "lng": 135.508667,
    "meeting_name": "例会",
    "schedule": "毎週 木曜日 19:00～20:45",
    "contact_phone": "",
    "prefecture": "大阪府",
    "next_date": null,
    "start_time": null,
    "end_time": null,
    "recurrence": null,
    "building_name": null,
    "meeting_type": "通常",
    "official_url": "http://osakashidanshurengoukai.web.fc2.com/jimukyoku.html"
  },
  {
    "id": 755,
    "facility_name": "城東区民センター",
    "address": "大阪府大阪市城東区中央3-5-45",
    "lat": 34.703159,
    "lng": 135.545578,
    "meeting_name": "例会",
    "schedule": "毎週 水曜日 19:00～20:45",
    "contact_phone": "",
    "prefecture": "大阪府",
    "next_date": null,
    "start_time": null,
    "end_time": null,
    "recurrence": null,
    "building_name": null,
    "meeting_type": "通常",
    "official_url": "http://osakashidanshurengoukai.web.fc2.com/jimukyoku.html"
  },
  {
    "id": 756,
    "facility_name": "大正区コミュニティセンター",
    "address": "大阪府大阪市大正区千鳥2丁目6-15",
    "lat": 34.652172,
    "lng": 135.476212,
    "meeting_name": "例会",
    "schedule": "第1･2･4 月曜日 19:00～20:45",
    "contact_phone": "",
    "prefecture": "大阪府",
    "next_date": null,
    "start_time": null,
    "end_time": null,
    "recurrence": null,
    "building_name": null,
    "meeting_type": "通常",
    "official_url": "http://osakashidanshurengoukai.web.fc2.com/jimukyoku.html"
  },
  {
    "id": 757,
    "facility_name": "天王寺区民センター",
    "address": "大阪府大阪市天王寺生玉寺町7-57",
    "lat": 34.657837,
    "lng": 135.519348,
    "meeting_name": "例会",
    "schedule": "第1 日曜日 19:00～20:45 第3･4 土曜日 19:00～20:45",
    "contact_phone": "",
    "prefecture": "大阪府",
    "next_date": null,
    "start_time": null,
    "end_time": null,
    "recurrence": null,
    "building_name": null,
    "meeting_type": "通常",
    "official_url": "http://osakashidanshurengoukai.web.fc2.com/jimukyoku.html"
  },
  {
    "id": 758,
    "facility_name": "平野区民ホール",
    "address": "大阪府大阪市平野区平野南1丁目2-7",
    "lat": 34.620422,
    "lng": 135.558182,
    "meeting_name": "平野北例会",
    "schedule": "毎週 水曜日 19:00～20:45",
    "contact_phone": "",
    "prefecture": "大阪府",
    "next_date": null,
    "start_time": null,
    "end_time": null,
    "recurrence": null,
    "building_name": null,
    "meeting_type": "通常",
    "official_url": "http://osakashidanshurengoukai.web.fc2.com/jimukyoku.html"
  },
  {
    "id": 759,
    "facility_name": "長原会館",
    "address": "大阪府大阪市平野区長吉長原西2丁目3-2",
    "lat": 34.605518,
    "lng": 135.566544,
    "meeting_name": "平野南例会",
    "schedule": "毎週 金曜日 19:00～20:30",
    "contact_phone": "",
    "prefecture": "大阪府",
    "next_date": null,
    "start_time": null,
    "end_time": null,
    "recurrence": null,
    "building_name": null,
    "meeting_type": "通常",
    "official_url": "http://osakashidanshurengoukai.web.fc2.com/jimukyoku.html"
  },
  {
    "id": 760,
    "facility_name": "リカバリハウスいちご矢田",
    "address": "大阪府大阪市東住吉区住道矢田3丁目4-3",
    "lat": 34.600784,
    "lng": 135.534866,
    "meeting_name": "おはよう例会",
    "schedule": "毎週 金曜日 10:00～11:30 祝日除く",
    "contact_phone": "",
    "prefecture": "大阪府",
    "next_date": null,
    "start_time": null,
    "end_time": null,
    "recurrence": null,
    "building_name": null,
    "meeting_type": "通常",
    "official_url": "http://osakashidanshurengoukai.web.fc2.com/jimukyoku.html"
  },
  {
    "id": 761,
    "facility_name": "市立中央会館",
    "address": "大阪府大阪市中央区島之内2丁目12-31",
    "lat": 34.671837,
    "lng": 135.50795,
    "meeting_name": "合同例会",
    "schedule": "第1 土曜日 19:00～21:00",
    "contact_phone": "",
    "prefecture": "大阪府",
    "next_date": null,
    "start_time": null,
    "end_time": null,
    "recurrence": null,
    "building_name": null,
    "meeting_type": "通常",
    "official_url": "http://osakashidanshurengoukai.web.fc2.com/jimukyoku.html"
  },
  {
    "id": 762,
    "facility_name": "今市カトリック教会",
    "address": "大阪府大阪市旭区太子橋1丁目1-27",
    "lat": 34.729633,
    "lng": 135.551559,
    "meeting_name": "例会",
    "schedule": "毎週 火曜日 19:00～20:45",
    "contact_phone": "",
    "prefecture": "大阪府",
    "next_date": null,
    "start_time": null,
    "end_time": null,
    "recurrence": null,
    "building_name": null,
    "meeting_type": "通常",
    "official_url": "http://osakashidanshurengoukai.web.fc2.com/jimukyoku.html"
  },
  {
    "id": 763,
    "facility_name": "早川福祉会館",
    "address": "大阪府大阪市東住吉区南田辺1丁目9-28",
    "lat": 34.62133,
    "lng": 135.525497,
    "meeting_name": "田辺例会",
    "schedule": "毎週 火曜日 19:00～20:45 祝日除く",
    "contact_phone": "",
    "prefecture": "大阪府",
    "next_date": null,
    "start_time": null,
    "end_time": null,
    "recurrence": null,
    "building_name": null,
    "meeting_type": "通常",
    "official_url": "http://osakashidanshurengoukai.web.fc2.com/jimukyoku.html"
  },
  {
    "id": 764,
    "facility_name": "ゆうあいセンター",
    "address": "大阪府大阪市東住吉区矢田5丁目13-9",
    "lat": 34.602062,
    "lng": 135.529831,
    "meeting_name": "矢田例会",
    "schedule": "第1･3 木曜日 19:00～20:45",
    "contact_phone": "",
    "prefecture": "大阪府",
    "next_date": null,
    "start_time": null,
    "end_time": null,
    "recurrence": null,
    "building_name": null,
    "meeting_type": "通常",
    "official_url": "http://osakashidanshurengoukai.web.fc2.com/jimukyoku.html"
  },
  {
    "id": 765,
    "facility_name": "東成区民センター",
    "address": "大阪府大阪市東成区大今里西3丁目2-17",
    "lat": 34.668411,
    "lng": 135.541351,
    "meeting_name": "例会",
    "schedule": "第1･2･3･4 木曜日 19:00～20:45",
    "contact_phone": "",
    "prefecture": "大阪府",
    "next_date": null,
    "start_time": null,
    "end_time": null,
    "recurrence": null,
    "building_name": null,
    "meeting_type": "通常",
    "official_url": "http://osakashidanshurengoukai.web.fc2.com/jimukyoku.html"
  },
  {
    "id": 766,
    "facility_name": "豊新第7町会集会所",
    "address": "大阪府大阪市東淀川区豊新5丁目15-13",
    "lat": 34.747608,
    "lng": 135.535522,
    "meeting_name": "上新庄例会",
    "schedule": "第2･4 土曜日 19:00～20:45",
    "contact_phone": "",
    "prefecture": "大阪府",
    "next_date": null,
    "start_time": null,
    "end_time": null,
    "recurrence": null,
    "building_name": null,
    "meeting_type": "通常",
    "official_url": "http://osakashidanshurengoukai.web.fc2.com/jimukyoku.html"
  },
  {
    "id": 767,
    "facility_name": "うぃずサポートセンター",
    "address": "大阪府大阪市東淀川区東淡路2丁目15-10FJSビル3階",
    "lat": 34.737328,
    "lng": 135.517365,
    "meeting_name": "淡路例会",
    "schedule": "毎週 水曜日 19:00～20:45 祝日除く",
    "contact_phone": "",
    "prefecture": "大阪府",
    "next_date": null,
    "start_time": null,
    "end_time": null,
    "recurrence": null,
    "building_name": null,
    "meeting_type": "通常",
    "official_url": "http://osakashidanshurengoukai.web.fc2.com/jimukyoku.html"
  },
  {
    "id": 768,
    "facility_name": "西九条社会福祉会館",
    "address": "大阪府大阪市此花区西九条2丁目3-15",
    "lat": 34.680748,
    "lng": 135.466156,
    "meeting_name": "例会",
    "schedule": "第1･2･3･4 水曜日 19:00～20:45 祝日除く",
    "contact_phone": "",
    "prefecture": "大阪府",
    "next_date": null,
    "start_time": null,
    "end_time": null,
    "recurrence": null,
    "building_name": null,
    "meeting_type": "通常",
    "official_url": "http://osakashidanshurengoukai.web.fc2.com/jimukyoku.html"
  },
  {
    "id": 769,
    "facility_name": "木津市場前公園老人憩いの家",
    "address": "大阪府大阪市浪速区敷津東3丁目9-37",
    "lat": 34.656281,
    "lng": 135.49942,
    "meeting_name": "例会",
    "schedule": "第2 水曜日 19:00～20:45 祝日除く",
    "contact_phone": "",
    "prefecture": "大阪府",
    "next_date": null,
    "start_time": null,
    "end_time": null,
    "recurrence": null,
    "building_name": null,
    "meeting_type": "通常",
    "official_url": "http://osakashidanshurengoukai.web.fc2.com/jimukyoku.html"
  },
  {
    "id": 770,
    "facility_name": "淀川区民センター",
    "address": "大阪府大阪市淀川区野中南2丁目1-5",
    "lat": 34.725208,
    "lng": 135.482697,
    "meeting_name": "淀川南例会",
    "schedule": "毎週 火曜日 19:00～20:45",
    "contact_phone": "",
    "prefecture": "大阪府",
    "next_date": null,
    "start_time": null,
    "end_time": null,
    "recurrence": null,
    "building_name": null,
    "meeting_type": "通常",
    "official_url": "http://osakashidanshurengoukai.web.fc2.com/jimukyoku.html"
  },
  {
    "id": 771,
    "facility_name": "宮原会館",
    "address": "大阪府大阪市淀川区宮原1丁目18-14",
    "lat": 34.737923,
    "lng": 135.499832,
    "meeting_name": "淀川東例会",
    "schedule": "毎週 木曜日 19:00～20:45",
    "contact_phone": "",
    "prefecture": "大阪府",
    "next_date": null,
    "start_time": null,
    "end_time": null,
    "recurrence": null,
    "building_name": null,
    "meeting_type": "通常",
    "official_url": "http://osakashidanshurengoukai.web.fc2.com/jimukyoku.html"
  },
  {
    "id": 772,
    "facility_name": "市岡元町老人憩いの家",
    "address": "大阪府大阪市港区市岡元町2丁目2-12",
    "lat": 34.668343,
    "lng": 135.467941,
    "meeting_name": "例会",
    "schedule": "毎週 金曜日 19:00～21:00",
    "contact_phone": "",
    "prefecture": "大阪府",
    "next_date": null,
    "start_time": null,
    "end_time": null,
    "recurrence": null,
    "building_name": null,
    "meeting_type": "通常",
    "official_url": "http://osakashidanshurengoukai.web.fc2.com/jimukyoku.html"
  },
  {
    "id": 773,
    "facility_name": "生野区民センター",
    "address": "大阪府大阪市生野区勝山北3丁目13-30",
    "lat": 34.654316,
    "lng": 135.533539,
    "meeting_name": "例会",
    "schedule": "毎週 月曜日 19:00～20:45",
    "contact_phone": "",
    "prefecture": "大阪府",
    "next_date": null,
    "start_time": null,
    "end_time": null,
    "recurrence": null,
    "building_name": null,
    "meeting_type": "通常",
    "official_url": "http://osakashidanshurengoukai.web.fc2.com/jimukyoku.html"
  },
  {
    "id": 774,
    "facility_name": "大開集会所",
    "address": "大阪府大阪市福島区大開1丁目19-40",
    "lat": 34.694378,
    "lng": 135.472443,
    "meeting_name": "例会",
    "schedule": "第1･2･4 月曜日 19:00～20:30 祝日除く",
    "contact_phone": "",
    "prefecture": "大阪府",
    "next_date": null,
    "start_time": null,
    "end_time": null,
    "recurrence": null,
    "building_name": null,
    "meeting_type": "通常",
    "official_url": "http://osakashidanshurengoukai.web.fc2.com/jimukyoku.html"
  },
  {
    "id": 775,
    "facility_name": "梅南集会所",
    "address": "大阪府大阪市西成区松3丁目2-35",
    "lat": 34.640984,
    "lng": 135.48912,
    "meeting_name": "西成南例会",
    "schedule": "毎週 木曜日 19:00～20:45",
    "contact_phone": "",
    "prefecture": "大阪府",
    "next_date": null,
    "start_time": null,
    "end_time": null,
    "recurrence": null,
    "building_name": null,
    "meeting_type": "通常",
    "official_url": "http://osakashidanshurengoukai.web.fc2.com/jimukyoku.html"
  },
  {
    "id": 776,
    "facility_name": "西成区民センター",
    "address": "大阪府大阪市西成区岸里1丁目1-50",
    "lat": 34.634346,
    "lng": 135.494675,
    "meeting_name": "西成東例会",
    "schedule": "毎週 火曜日 19:00～20:45",
    "contact_phone": "",
    "prefecture": "大阪府",
    "next_date": null,
    "start_time": null,
    "end_time": null,
    "recurrence": null,
    "building_name": null,
    "meeting_type": "通常",
    "official_url": "http://osakashidanshurengoukai.web.fc2.com/jimukyoku.html"
  },
  {
    "id": 777,
    "facility_name": "西区民センター",
    "address": "大阪府大阪市西区北堀江4丁目2-7",
    "lat": 34.674564,
    "lng": 135.486862,
    "meeting_name": "例会",
    "schedule": "第1･3･4 月曜日 13:00～14:45 祝日除く",
    "contact_phone": "",
    "prefecture": "大阪府",
    "next_date": null,
    "start_time": null,
    "end_time": null,
    "recurrence": null,
    "building_name": null,
    "meeting_type": "通常",
    "official_url": "http://osakashidanshurengoukai.web.fc2.com/jimukyoku.html"
  },
  {
    "id": 778,
    "facility_name": "姫島老人クラブ老人憩いの家",
    "address": "大阪府大阪市西淀川区姫島4丁目10-19",
    "lat": 34.7052,
    "lng": 135.45372,
    "meeting_name": "例会",
    "schedule": "第2･3･4･5 土曜日 19:00～20:45 祝日除く",
    "contact_phone": "",
    "prefecture": "大阪府",
    "next_date": null,
    "start_time": null,
    "end_time": null,
    "recurrence": null,
    "building_name": null,
    "meeting_type": "通常",
    "official_url": "http://osakashidanshurengoukai.web.fc2.com/jimukyoku.html"
  },
  {
    "id": 779,
    "facility_name": "都島区民センター",
    "address": "大阪府大阪市都島区中野町2丁目16-25",
    "lat": 34.70089,
    "lng": 135.528214,
    "meeting_name": "例会",
    "schedule": "第1･2･3･4 金曜日 19:00～20:45 祝日除く",
    "contact_phone": "",
    "prefecture": "大阪府",
    "next_date": null,
    "start_time": null,
    "end_time": null,
    "recurrence": null,
    "building_name": null,
    "meeting_type": "通常",
    "official_url": "http://osakashidanshurengoukai.web.fc2.com/jimukyoku.html"
  },
  {
    "id": 780,
    "facility_name": "まった生協診療所",
    "address": "大阪府大阪市鶴見区横堤3丁目6-7",
    "lat": 34.700668,
    "lng": 135.572372,
    "meeting_name": "例会",
    "schedule": "毎週 月曜日 19:00～20:45",
    "contact_phone": "",
    "prefecture": "大阪府",
    "next_date": null,
    "start_time": null,
    "end_time": null,
    "recurrence": null,
    "building_name": null,
    "meeting_type": "通常",
    "official_url": "http://osakashidanshurengoukai.web.fc2.com/jimukyoku.html"
  },
  {
    "id": 781,
    "facility_name": "大阪狭山市文化会館SAYAKAホール",
    "address": "大阪府狭山1丁目875-1",
    "lat": 34.686344,
    "lng": 135.520035,
    "meeting_name": "例会",
    "schedule": "毎週 金曜日 19:00～21:00",
    "contact_phone": "",
    "prefecture": "大阪府",
    "next_date": null,
    "start_time": null,
    "end_time": null,
    "recurrence": null,
    "building_name": null,
    "meeting_type": "通常",
    "official_url": "http://oosakafudann.sunnyday.jp/例会場案内/#i-7"
  },
  {
    "id": 782,
    "facility_name": "守口市中央コミュニティセンター",
    "address": "大阪府守口市京阪本通2丁目14-1",
    "lat": 34.737999,
    "lng": 135.563141,
    "meeting_name": "例会",
    "schedule": "毎週 土曜日 19:00～21:00",
    "contact_phone": "",
    "prefecture": "大阪府",
    "next_date": null,
    "start_time": null,
    "end_time": null,
    "recurrence": null,
    "building_name": null,
    "meeting_type": "通常",
    "official_url": "http://www.geocities.jp/katano_d/guide.html"
  },
  {
    "id": 783,
    "facility_name": "福祉青少年センター",
    "address": "大阪府富田林市常盤町11-18",
    "lat": 34.50037,
    "lng": 135.597336,
    "meeting_name": "例会",
    "schedule": "第1･2･3･4 金曜日 19:00～20:45 祝日除く",
    "contact_phone": "",
    "prefecture": "大阪府",
    "next_date": null,
    "start_time": null,
    "end_time": null,
    "recurrence": null,
    "building_name": null,
    "meeting_type": "通常",
    "official_url": "http://oosakafudann.sunnyday.jp/例会場案内/#i-7"
  },
  {
    "id": 784,
    "facility_name": "富田林市中央公民館",
    "address": "大阪府富田林市本町16-28",
    "lat": 34.502934,
    "lng": 135.599716,
    "meeting_name": "例会",
    "schedule": "第5 金曜日 19:00～20:45 祝日除く",
    "contact_phone": "",
    "prefecture": "大阪府",
    "next_date": null,
    "start_time": null,
    "end_time": null,
    "recurrence": null,
    "building_name": null,
    "meeting_type": "通常",
    "official_url": "http://oosakafudann.sunnyday.jp/例会場案内/#i-7"
  },
  {
    "id": 785,
    "facility_name": "市立エスポアール",
    "address": "大阪府寝屋川市錦町21-3",
    "lat": 34.761234,
    "lng": 135.614304,
    "meeting_name": "東支部例会",
    "schedule": "毎週 土曜日 19:00～21:00",
    "contact_phone": "",
    "prefecture": "大阪府",
    "next_date": null,
    "start_time": null,
    "end_time": null,
    "recurrence": null,
    "building_name": null,
    "meeting_type": "通常",
    "official_url": "http://www.geocities.jp/katano_d/guide.html"
  },
  {
    "id": 786,
    "facility_name": "寝屋川市立会館産業振興センター",
    "address": "大阪府寝屋川市大利町2-14",
    "lat": 34.76543,
    "lng": 135.618942,
    "meeting_name": "西支部例会",
    "schedule": "毎週 火曜日 18:30～20:15 祝日除く",
    "contact_phone": "",
    "prefecture": "大阪府",
    "next_date": null,
    "start_time": null,
    "end_time": null,
    "recurrence": null,
    "building_name": null,
    "meeting_type": "通常",
    "official_url": "http://www.geocities.jp/katano_d/guide.html"
  },
  {
    "id": 787,
    "facility_name": "市立福祉総合センター",
    "address": "大阪府岸和田市野田町1丁目5",
    "lat": 34.458527,
    "lng": 135.378815,
    "meeting_name": "例会",
    "schedule": "毎週 火曜日 19:00～20:45 祝日除く",
    "contact_phone": "",
    "prefecture": "大阪府",
    "next_date": null,
    "start_time": null,
    "end_time": null,
    "recurrence": null,
    "building_name": null,
    "meeting_type": "通常",
    "official_url": "http://oosakafudann.sunnyday.jp/例会場案内/#i-8"
  },
  {
    "id": 788,
    "facility_name": "キックス　市民交流センター",
    "address": "大阪府河内長野市昭栄町7-1",
    "lat": 34.454536,
    "lng": 135.560333,
    "meeting_name": "例会",
    "schedule": "毎週 火曜日 19:00～21:00",
    "contact_phone": "",
    "prefecture": "大阪府",
    "next_date": null,
    "start_time": null,
    "end_time": null,
    "recurrence": null,
    "building_name": null,
    "meeting_type": "通常",
    "official_url": "https://dannsyukai.jimdofree.com"
  },
  {
    "id": 789,
    "facility_name": "大阪産業創造館 15階",
    "address": "大阪府大阪市中央区本町1丁目4-5",
    "lat": 34.68362,
    "lng": 135.509247,
    "meeting_name": "例会",
    "schedule": "第2･3･4･5 金曜日 19:00～20:45",
    "contact_phone": "",
    "prefecture": "大阪府",
    "next_date": null,
    "start_time": null,
    "end_time": null,
    "recurrence": null,
    "building_name": null,
    "meeting_type": "通常",
    "official_url": "https://oosakashichuuoudanshukai.jimdosite.com"
  },
  {
    "id": 790,
    "facility_name": "豊中市立障害福祉センターひまわり(服部駅・庄内駅徒歩１３分)",
    "address": "大阪府豊中市稲津町1丁目1-20",
    "lat": 34.757252,
    "lng": 135.47522,
    "meeting_name": "庄内東支部例会",
    "schedule": "毎週 日曜日 19:00～20:45",
    "contact_phone": "",
    "prefecture": "大阪府",
    "next_date": null,
    "start_time": null,
    "end_time": null,
    "recurrence": null,
    "building_name": null,
    "meeting_type": "通常",
    "official_url": "https://dansyukai-toyonaka.jimdosite.com/"
  },
  {
    "id": 791,
    "facility_name": "島本町ふれあいセンター",
    "address": "大阪府三島郡島本町桜井3-4-1",
    "lat": 34.883202,
    "lng": 135.661392,
    "meeting_name": "断酒例会",
    "schedule": "",
    "contact_phone": "",
    "prefecture": "大阪府",
    "next_date": null,
    "start_time": null,
    "end_time": null,
    "recurrence": null,
    "building_name": null,
    "meeting_type": "通常",
    "official_url": "https://fudanshu.com/"
  },
  {
    "id": 792,
    "facility_name": "ルシオーレ５階　市立蛍池公民館(蛍池駅直結)",
    "address": "大阪府豊中市螢池中町3丁目2-1",
    "lat": 34.794266,
    "lng": 135.448837,
    "meeting_name": "蛍池支部例会",
    "schedule": "第1･2･3･4 金曜日 19:00～20:45",
    "contact_phone": "",
    "prefecture": "大阪府",
    "next_date": null,
    "start_time": null,
    "end_time": null,
    "recurrence": null,
    "building_name": null,
    "meeting_type": "通常",
    "official_url": "https://dansyukai-toyonaka.jimdosite.com/"
  },
  {
    "id": 793,
    "facility_name": "ルシオーレ５階　市立蛍池公民館(蛍池駅直結)",
    "address": "豊中市蛍池中町3-2-1-501",
    "lat": 34.794266,
    "lng": 135.448837,
    "meeting_name": "豊中市断酒会　昼例会",
    "schedule": "第1 金曜日 14:00～16:00",
    "contact_phone": "",
    "prefecture": "大阪府",
    "next_date": null,
    "start_time": null,
    "end_time": null,
    "recurrence": null,
    "building_name": null,
    "meeting_type": "通常",
    "official_url": "https://dansyukai-toyonaka.jimdosite.com/"
  },
  {
    "id": 794,
    "facility_name": "豊中市立地域共生センター(岡町駅徒歩５分)",
    "address": "大阪府豊中市中桜塚2丁目28-8",
    "lat": 34.778934,
    "lng": 135.467804,
    "meeting_name": "豊中支部例会",
    "schedule": "毎週 木曜日 19:00～20:45",
    "contact_phone": "",
    "prefecture": "大阪府",
    "next_date": null,
    "start_time": null,
    "end_time": null,
    "recurrence": null,
    "building_name": null,
    "meeting_type": "通常",
    "official_url": "https://dansyukai-toyonaka.jimdosite.com/"
  },
  {
    "id": 795,
    "facility_name": "阿倍野区民センター",
    "address": "大阪府大阪市阿倍野区阿倍野筋4丁目19-118",
    "lat": 34.641296,
    "lng": 135.510468,
    "meeting_name": "例会",
    "schedule": "第1･2･3･4 月曜日 19:00～20:45",
    "contact_phone": "",
    "prefecture": "大阪府",
    "next_date": null,
    "start_time": null,
    "end_time": null,
    "recurrence": null,
    "building_name": null,
    "meeting_type": "通常",
    "official_url": "https://m.facebook.com/OsakaCityDansyuAssociation"
  },
  {
    "id": 796,
    "facility_name": "千里コラボ３階　市立千里公民館(北急千里中央駅直結)",
    "address": "大阪府豊中市新千里東町1丁目2-2",
    "lat": 34.811497,
    "lng": 135.4944,
    "meeting_name": "豊中千里支部例会",
    "schedule": "第1･2･3･4 水曜日 19:00～20:45",
    "contact_phone": "",
    "prefecture": "大阪府",
    "next_date": null,
    "start_time": null,
    "end_time": null,
    "recurrence": null,
    "building_name": null,
    "meeting_type": "通常",
    "official_url": "https://dansyukai-toyonaka.jimdosite.com/"
  },
  {
    "id": 797,
    "facility_name": "安威川公民館",
    "address": "大阪府摂津市正雀4丁目9-28",
    "lat": 34.772648,
    "lng": 135.553146,
    "meeting_name": "安威川支部例会",
    "schedule": "毎週 木曜日 19:00～21:00",
    "contact_phone": "",
    "prefecture": "大阪府",
    "next_date": null,
    "start_time": null,
    "end_time": null,
    "recurrence": null,
    "building_name": null,
    "meeting_type": "通常",
    "official_url": "https://fudanshu.com/"
  },
  {
    "id": 798,
    "facility_name": "摂津市立コミュニティプラザ",
    "address": "大阪府摂津市南千里丘5-35",
    "lat": 34.786419,
    "lng": 135.554337,
    "meeting_name": "摂津支部例会",
    "schedule": "第2･3･4･5 月曜日 19:00～21:00",
    "contact_phone": "",
    "prefecture": "大阪府",
    "next_date": null,
    "start_time": null,
    "end_time": null,
    "recurrence": null,
    "building_name": null,
    "meeting_type": "通常",
    "official_url": "https://fudanshu.com/"
  },
  {
    "id": 799,
    "facility_name": "市立男女共同参画センター",
    "address": "大阪府東大阪市岩田町4丁目3-22",
    "lat": 34.663422,
    "lng": 135.607834,
    "meeting_name": "アメシスト例会",
    "schedule": "第3 火曜日 13:00～15:00",
    "contact_phone": "",
    "prefecture": "大阪府",
    "next_date": null,
    "start_time": null,
    "end_time": null,
    "recurrence": null,
    "building_name": null,
    "meeting_type": "女性(アメシスト)",
    "official_url": "http://oosakafudann.sunnyday.jp/例会場案内/#i-5"
  },
  {
    "id": 800,
    "facility_name": "太平寺公民会館",
    "address": "大阪府東大阪市太平寺2丁目9-32",
    "lat": 34.654789,
    "lng": 135.567474,
    "meeting_name": "太平寺支部例会",
    "schedule": "毎週 火曜日 19:00～20:45",
    "contact_phone": "",
    "prefecture": "大阪府",
    "next_date": null,
    "start_time": null,
    "end_time": null,
    "recurrence": null,
    "building_name": null,
    "meeting_type": "通常",
    "official_url": "http://oosakafudann.sunnyday.jp/例会場案内/#i-5"
  },
  {
    "id": 801,
    "facility_name": "菱屋西公民分館永和分室",
    "address": "大阪府東大阪市永和1丁目10-27",
    "lat": 34.662228,
    "lng": 135.573013,
    "meeting_name": "布施支部例会",
    "schedule": "第1･2･3･5 金曜日 18:45～20:30",
    "contact_phone": "",
    "prefecture": "大阪府",
    "next_date": null,
    "start_time": null,
    "end_time": null,
    "recurrence": null,
    "building_name": null,
    "meeting_type": "通常",
    "official_url": "http://oosakafudann.sunnyday.jp/例会場案内/#i-5"
  },
  {
    "id": 802,
    "facility_name": "スタジオパッソ",
    "address": "大阪府東大阪市足代新町14-17",
    "lat": 34.664803,
    "lng": 135.559204,
    "meeting_name": "布施支部例会",
    "schedule": "第4 金曜日 19:00～20:45",
    "contact_phone": "",
    "prefecture": "大阪府",
    "next_date": null,
    "start_time": null,
    "end_time": null,
    "recurrence": null,
    "building_name": null,
    "meeting_type": "通常",
    "official_url": "http://oosakafudann.sunnyday.jp/例会場案内/#i-5"
  },
  {
    "id": 803,
    "facility_name": "荒川公民分館",
    "address": "大阪府東大阪市荒川1丁目8-19",
    "lat": 34.661854,
    "lng": 135.568527,
    "meeting_name": "布施西支部例会",
    "schedule": "毎週 月曜日 19:00～20:45 祝日除く",
    "contact_phone": "",
    "prefecture": "大阪府",
    "next_date": null,
    "start_time": null,
    "end_time": null,
    "recurrence": null,
    "building_name": null,
    "meeting_type": "通常",
    "official_url": "http://oosakafudann.sunnyday.jp/例会場案内/#i-5"
  },
  {
    "id": 804,
    "facility_name": "市立障害児者支援センター「レピラ」",
    "address": "大阪府東大阪市菱江5丁目2-34",
    "lat": 34.670681,
    "lng": 135.608429,
    "meeting_name": "本部例会",
    "schedule": "第4 土曜日 19:00～20:45",
    "contact_phone": "",
    "prefecture": "大阪府",
    "next_date": null,
    "start_time": null,
    "end_time": null,
    "recurrence": null,
    "building_name": null,
    "meeting_type": "通常",
    "official_url": "http://oosakafudann.sunnyday.jp/例会場案内/#i-5"
  },
  {
    "id": 805,
    "facility_name": "市立東体育館",
    "address": "大阪府東大阪市鷹殿町1-2",
    "lat": 34.667862,
    "lng": 135.64003,
    "meeting_name": "枚岡支部例会",
    "schedule": "第1･2･3･4 金曜日 19:00～20:40",
    "contact_phone": "",
    "prefecture": "大阪府",
    "next_date": null,
    "start_time": null,
    "end_time": null,
    "recurrence": null,
    "building_name": null,
    "meeting_type": "通常",
    "official_url": "http://oosakafudann.sunnyday.jp/例会場案内/#i-5"
  },
  {
    "id": 806,
    "facility_name": "盾津鴻池公民分館",
    "address": "大阪府東大阪市鴻池町1丁目18-19",
    "lat": 34.699844,
    "lng": 135.605728,
    "meeting_name": "鴻池支部例会",
    "schedule": "毎週 水曜日 19:00～20:45",
    "contact_phone": "",
    "prefecture": "大阪府",
    "next_date": null,
    "start_time": null,
    "end_time": null,
    "recurrence": null,
    "building_name": null,
    "meeting_type": "通常",
    "official_url": "http://oosakafudann.sunnyday.jp/例会場案内/#i-5"
  },
  {
    "id": 807,
    "facility_name": "松原文化会館",
    "address": "大阪府松原市田井城1丁目3-11",
    "lat": 34.577686,
    "lng": 135.548615,
    "meeting_name": "例会",
    "schedule": "毎週 水曜日 19:00～21:00",
    "contact_phone": "",
    "prefecture": "大阪府",
    "next_date": null,
    "start_time": null,
    "end_time": null,
    "recurrence": null,
    "building_name": null,
    "meeting_type": "通常",
    "official_url": "http://oosakafudann.sunnyday.jp/例会場案内/#i-7"
  },
  {
    "id": 808,
    "facility_name": "枚方市立総合福祉会館ラポールひらかた",
    "address": "大阪府枚方市新町2-1-35",
    "lat": 34.816734,
    "lng": 135.646515,
    "meeting_name": "日曜例会",
    "schedule": "第3･4 日曜日 18:00～20:00",
    "contact_phone": "",
    "prefecture": "大阪府",
    "next_date": null,
    "start_time": null,
    "end_time": null,
    "recurrence": null,
    "building_name": null,
    "meeting_type": "通常",
    "official_url": "http://www.geocities.jp/katano_d/guide.html"
  },
  {
    "id": 809,
    "facility_name": "ラポールひらかた",
    "address": "枚方市新町2丁目1-35",
    "lat": 34.816734,
    "lng": 135.646515,
    "meeting_name": "本部例会",
    "schedule": "第1 土曜日 19:00～20:45 祝日も開催しています",
    "contact_phone": "",
    "prefecture": "大阪府",
    "next_date": null,
    "start_time": null,
    "end_time": null,
    "recurrence": null,
    "building_name": null,
    "meeting_type": "通常",
    "official_url": "http://www.geocities.jp/katano_d/guide.html"
  },
  {
    "id": 810,
    "facility_name": "牧野生涯学習市民センター",
    "address": "大阪府枚方市宇山町4-5",
    "lat": 34.842686,
    "lng": 135.668991,
    "meeting_name": "枚方支部例会",
    "schedule": "第2･3･4･5 土曜日 19:00～20:45 祝日除く",
    "contact_phone": "",
    "prefecture": "大阪府",
    "next_date": null,
    "start_time": null,
    "end_time": null,
    "recurrence": null,
    "building_name": null,
    "meeting_type": "通常",
    "official_url": "http://www.geocities.jp/katano_d/guide.html"
  },
  {
    "id": 811,
    "facility_name": "楠葉生涯学習市民センター",
    "address": "大阪府枚方市楠葉並木2-29-5",
    "lat": 34.859627,
    "lng": 135.681549,
    "meeting_name": "楠葉支部例会",
    "schedule": "毎週 火曜日 19:00～20:45 祝日除く",
    "contact_phone": "",
    "prefecture": "大阪府",
    "next_date": null,
    "start_time": null,
    "end_time": null,
    "recurrence": null,
    "building_name": null,
    "meeting_type": "通常",
    "official_url": "http://www.geocities.jp/katano_d/guide.html"
  },
  {
    "id": 812,
    "facility_name": "菅原生涯学習市民センター",
    "address": "大阪府枚方市長尾元町1-35-1",
    "lat": 34.823738,
    "lng": 135.708771,
    "meeting_name": "長尾支部例会",
    "schedule": "毎週 金曜日 19:00～20:45 祝日除く",
    "contact_phone": "",
    "prefecture": "大阪府",
    "next_date": null,
    "start_time": null,
    "end_time": null,
    "recurrence": null,
    "building_name": null,
    "meeting_type": "通常",
    "official_url": "http://www.geocities.jp/katano_d/guide.html"
  },
  {
    "id": 813,
    "facility_name": "枚方市立サンプラザ生涯学習市民センター",
    "address": "大阪府枚方市岡東町12-3",
    "lat": 34.815697,
    "lng": 135.649704,
    "meeting_name": "香里支部例会",
    "schedule": "毎週 水曜日 19:00～20:45 祝日除く",
    "contact_phone": "",
    "prefecture": "大阪府",
    "next_date": null,
    "start_time": null,
    "end_time": null,
    "recurrence": null,
    "building_name": null,
    "meeting_type": "通常",
    "official_url": "http://www.geocities.jp/katano_d/guide.html"
  },
  {
    "id": 814,
    "facility_name": "市立天神会館",
    "address": "大阪府池田市天神2丁目2-13",
    "lat": 34.807381,
    "lng": 135.440918,
    "meeting_name": "本部例会",
    "schedule": "第2･4 金曜日 19:00～21:00",
    "contact_phone": "",
    "prefecture": "大阪府",
    "next_date": null,
    "start_time": null,
    "end_time": null,
    "recurrence": null,
    "building_name": null,
    "meeting_type": "通常",
    "official_url": "http://www.eonet.ne.jp/~caw/toyono/cover.html"
  },
  {
    "id": 815,
    "facility_name": "ステーションN",
    "address": "大阪府池田市菅原町3-1",
    "lat": 34.821121,
    "lng": 135.427109,
    "meeting_name": "本部例会",
    "schedule": "第1･3･5 金曜日 19:00～21:00",
    "contact_phone": "",
    "prefecture": "大阪府",
    "next_date": null,
    "start_time": null,
    "end_time": null,
    "recurrence": null,
    "building_name": null,
    "meeting_type": "通常",
    "official_url": "http://www.eonet.ne.jp/~caw/toyono/cover.html"
  },
  {
    "id": 816,
    "facility_name": "池田駅前南会館",
    "address": "大阪府池田市呉服町1-1",
    "lat": 34.821445,
    "lng": 135.425156,
    "meeting_name": "池田支部例会",
    "schedule": "第1･3 月曜日 19:00～21:00",
    "contact_phone": "",
    "prefecture": "大阪府",
    "next_date": null,
    "start_time": null,
    "end_time": null,
    "recurrence": null,
    "building_name": null,
    "meeting_type": "通常",
    "official_url": "http://www.eonet.ne.jp/~caw/toyono/cover.html"
  },
  {
    "id": 817,
    "facility_name": "池田市民文化会館",
    "address": "大阪府池田市天神1丁目7-1",
    "lat": 34.809849,
    "lng": 135.442123,
    "meeting_name": "池田支部例会",
    "schedule": "第2 月曜日 19:00～21:00",
    "contact_phone": "",
    "prefecture": "大阪府",
    "next_date": null,
    "start_time": null,
    "end_time": null,
    "recurrence": null,
    "building_name": null,
    "meeting_type": "通常",
    "official_url": "http://www.eonet.ne.jp/~caw/toyono/cover.html"
  },
  {
    "id": 818,
    "facility_name": "佐野公民館",
    "address": "大阪府泉佐野市大西1丁目23-9",
    "lat": 34.409988,
    "lng": 135.312454,
    "meeting_name": "例会",
    "schedule": "毎週 土曜日 19:00～20:45 祝日除く",
    "contact_phone": "",
    "prefecture": "大阪府",
    "next_date": null,
    "start_time": null,
    "end_time": null,
    "recurrence": null,
    "building_name": null,
    "meeting_type": "通常",
    "official_url": "http://oosakafudann.sunnyday.jp/例会場案内/#i-8"
  },
  {
    "id": 819,
    "facility_name": "中央生涯学習センター",
    "address": "大阪府箕面市箕面5丁目11-23",
    "lat": 34.831169,
    "lng": 135.471313,
    "meeting_name": "例会",
    "schedule": "毎週 水曜日 19:00～21:00",
    "contact_phone": "",
    "prefecture": "大阪府",
    "next_date": null,
    "start_time": null,
    "end_time": null,
    "recurrence": null,
    "building_name": null,
    "meeting_type": "通常",
    "official_url": "http://www.eonet.ne.jp/~caw/toyono/cover.html"
  },
  {
    "id": 820,
    "facility_name": "茨木市立男女共生センターローズWAM",
    "address": "大阪府茨木市元町4-7",
    "lat": 34.817066,
    "lng": 135.570572,
    "meeting_name": "",
    "schedule": "第1 土曜日 19:00～21:00",
    "contact_phone": "",
    "prefecture": "大阪府",
    "next_date": null,
    "start_time": null,
    "end_time": null,
    "recurrence": null,
    "building_name": null,
    "meeting_type": "通常",
    "official_url": "https://fudanshu.com/"
  },
  {
    "id": 821,
    "facility_name": "茨木公民館",
    "address": "大阪府茨木市東宮町1-19",
    "lat": 34.822735,
    "lng": 135.5746,
    "meeting_name": "",
    "schedule": "第2･3･4･5 土曜日 19:00～21:00",
    "contact_phone": "",
    "prefecture": "大阪府",
    "next_date": null,
    "start_time": null,
    "end_time": null,
    "recurrence": null,
    "building_name": null,
    "meeting_type": "通常",
    "official_url": "https://fudanshu.com/"
  },
  {
    "id": 822,
    "facility_name": "大池コミュニティセンター",
    "address": "大阪府茨木市舟木町11-35",
    "lat": 34.813984,
    "lng": 135.578201,
    "meeting_name": "",
    "schedule": "毎週 水曜日 19:00～21:00",
    "contact_phone": "",
    "prefecture": "大阪府",
    "next_date": null,
    "start_time": null,
    "end_time": null,
    "recurrence": null,
    "building_name": null,
    "meeting_type": "通常",
    "official_url": "https://fudanshu.com/"
  },
  {
    "id": 823,
    "facility_name": "茨木市福祉文化会館",
    "address": "大阪府茨木市駅前4丁目7-55",
    "lat": 34.817013,
    "lng": 135.568298,
    "meeting_name": "昼例会",
    "schedule": "第2 木曜日 13:30～15:30",
    "contact_phone": "",
    "prefecture": "大阪府",
    "next_date": null,
    "start_time": null,
    "end_time": null,
    "recurrence": null,
    "building_name": null,
    "meeting_type": "通常",
    "official_url": "https://fudanshu.com/"
  },
  {
    "id": 824,
    "facility_name": "NPO法人キグナス若園支援センター作業所",
    "address": "大阪府茨木市真砂3丁目18-20",
    "lat": 34.79689,
    "lng": 135.581573,
    "meeting_name": "昼例会",
    "schedule": "第4 木曜日 13:30～15:30",
    "contact_phone": "",
    "prefecture": "大阪府",
    "next_date": null,
    "start_time": null,
    "end_time": null,
    "recurrence": null,
    "building_name": null,
    "meeting_type": "通常",
    "official_url": "https://fudanshu.com/"
  },
  {
    "id": 825,
    "facility_name": "恵我之荘集会所",
    "address": "大阪府羽曳野市恵我之荘5丁目1-3",
    "lat": 34.57365,
    "lng": 135.572983,
    "meeting_name": "例会",
    "schedule": "毎週 月曜日 19:00～20:45",
    "contact_phone": "",
    "prefecture": "大阪府",
    "next_date": null,
    "start_time": null,
    "end_time": null,
    "recurrence": null,
    "building_name": null,
    "meeting_type": "通常",
    "official_url": "http://oosakafudann.sunnyday.jp/例会場案内/#i-7"
  },
  {
    "id": 826,
    "facility_name": "箕面市中央生涯学習センター",
    "address": "大阪府箕面市箕面５丁目１１−２３",
    "lat": 34.831169,
    "lng": 135.471313,
    "meeting_name": "合同例会",
    "schedule": "第5 水曜日 19:00～20:45",
    "contact_phone": "",
    "prefecture": "大阪府",
    "next_date": null,
    "start_time": null,
    "end_time": null,
    "recurrence": null,
    "building_name": null,
    "meeting_type": "通常",
    "official_url": "http://www.eonet.ne.jp/~caw/toyono/cover.html"
  },
  {
    "id": 827,
    "facility_name": "貝塚市民福祉センター",
    "address": "大阪府貝塚市畠中1丁目10-1",
    "lat": 34.438396,
    "lng": 135.359177,
    "meeting_name": "アメシスト例会",
    "schedule": "第1 月曜日 19:00～21:00",
    "contact_phone": "",
    "prefecture": "大阪府",
    "next_date": null,
    "start_time": null,
    "end_time": null,
    "recurrence": null,
    "building_name": null,
    "meeting_type": "女性(アメシスト)",
    "official_url": "http://oosakafudann.sunnyday.jp/例会場案内/#i-8"
  },
  {
    "id": 828,
    "facility_name": "貝塚市保健センター",
    "address": "大阪府貝塚市畠中1丁目18-8",
    "lat": 34.437019,
    "lng": 135.359711,
    "meeting_name": "昼例会",
    "schedule": "第2･4 水曜日 13:30～15:00",
    "contact_phone": "",
    "prefecture": "大阪府",
    "next_date": null,
    "start_time": null,
    "end_time": null,
    "recurrence": null,
    "building_name": null,
    "meeting_type": "通常",
    "official_url": "http://oosakafudann.sunnyday.jp/例会場案内/#i-8"
  },
  {
    "id": 829,
    "facility_name": "門真市立文化会館",
    "address": "大阪府門真市中町2-3",
    "lat": 34.740711,
    "lng": 135.586075,
    "meeting_name": "例会",
    "schedule": "毎週 土曜日 19:00～21:00",
    "contact_phone": "",
    "prefecture": "大阪府",
    "next_date": null,
    "start_time": null,
    "end_time": null,
    "recurrence": null,
    "building_name": null,
    "meeting_type": "通常",
    "official_url": "http://www.geocities.jp/katano_d/guide.html"
  },
  {
    "id": 830,
    "facility_name": "尾崎公民館",
    "address": "大阪府阪南市尾崎町1丁目18-15",
    "lat": 34.361382,
    "lng": 135.2388,
    "meeting_name": "例会",
    "schedule": "毎週 水曜日 19:00～21:00",
    "contact_phone": "",
    "prefecture": "大阪府",
    "next_date": null,
    "start_time": null,
    "end_time": null,
    "recurrence": null,
    "building_name": null,
    "meeting_type": "通常",
    "official_url": "http://oosakafudann.sunnyday.jp/例会場案内/#i-8"
  },
  {
    "id": 831,
    "facility_name": "鳥取ノ荘住民センター",
    "address": "大阪府阪南市鳥取668-9",
    "lat": 34.35165,
    "lng": 135.230606,
    "meeting_name": "例会",
    "schedule": "第1 金曜日 19:00～21:00",
    "contact_phone": "",
    "prefecture": "大阪府",
    "next_date": null,
    "start_time": null,
    "end_time": null,
    "recurrence": null,
    "building_name": null,
    "meeting_type": "通常",
    "official_url": "http://oosakafudann.sunnyday.jp/例会場案内/#i-8"
  },
  {
    "id": 832,
    "facility_name": "富田公民館",
    "address": "大阪府高槻市富田町5丁目17-1",
    "lat": 34.830853,
    "lng": 135.595123,
    "meeting_name": "アメシスト例会",
    "schedule": "第2 土曜日 13:30～15:00",
    "contact_phone": "",
    "prefecture": "大阪府",
    "next_date": null,
    "start_time": null,
    "end_time": null,
    "recurrence": null,
    "building_name": null,
    "meeting_type": "女性(アメシスト)",
    "official_url": "https://fudanshu.com/"
  },
  {
    "id": 833,
    "facility_name": "新阿武山病院",
    "address": "大阪府高槻市奈佐原4丁目10-1",
    "lat": 34.866047,
    "lng": 135.574692,
    "meeting_name": "アメシスト例会",
    "schedule": "第4 木曜日 10:30～11:30",
    "contact_phone": "",
    "prefecture": "大阪府",
    "next_date": null,
    "start_time": null,
    "end_time": null,
    "recurrence": null,
    "building_name": null,
    "meeting_type": "女性(アメシスト)",
    "official_url": "https://fudanshu.com/"
  },
  {
    "id": 834,
    "facility_name": "城内公民館",
    "address": "大阪府高槻市城内町1-1",
    "lat": 34.844898,
    "lng": 135.622314,
    "meeting_name": "北園支部例会",
    "schedule": "毎週 月曜日 19:00～21:00",
    "contact_phone": "",
    "prefecture": "大阪府",
    "next_date": null,
    "start_time": null,
    "end_time": null,
    "recurrence": null,
    "building_name": null,
    "meeting_type": "通常",
    "official_url": "https://fudanshu.com/"
  },
  {
    "id": 835,
    "facility_name": "富田公民館",
    "address": "大阪府高槻市富田町５丁目１７−１",
    "lat": 34.830853,
    "lng": 135.595123,
    "meeting_name": "富田支部例会",
    "schedule": "毎週 木曜日 19:00～21:00",
    "contact_phone": "",
    "prefecture": "大阪府",
    "next_date": null,
    "start_time": null,
    "end_time": null,
    "recurrence": null,
    "building_name": null,
    "meeting_type": "通常",
    "official_url": "https://fudanshu.com/"
  },
  {
    "id": 836,
    "facility_name": "磐手公民館",
    "address": "大阪府高槻市安満北の町18-1",
    "lat": 34.862976,
    "lng": 135.629181,
    "meeting_name": "金曜例会",
    "schedule": "毎週 金曜日 14:30～16:00",
    "contact_phone": "",
    "prefecture": "大阪府",
    "next_date": null,
    "start_time": null,
    "end_time": null,
    "recurrence": null,
    "building_name": null,
    "meeting_type": "通常",
    "official_url": "https://fudanshu.com/"
  },
  {
    "id": 837,
    "facility_name": "真上公民館",
    "address": "大阪府高槻市真上町2丁目16-6",
    "lat": 34.857933,
    "lng": 135.608612,
    "meeting_name": "高槻支部例会",
    "schedule": "毎週 火曜日 19:00～21:00",
    "contact_phone": "",
    "prefecture": "大阪府",
    "next_date": null,
    "start_time": null,
    "end_time": null,
    "recurrence": null,
    "building_name": null,
    "meeting_type": "通常",
    "official_url": "https://fudanshu.com/"
  },
  {
    "id": 838,
    "facility_name": "たかいし市民文化会館(アプラホール)",
    "address": "大阪府高石市綾園1丁目9-1",
    "lat": 34.521965,
    "lng": 135.433899,
    "meeting_name": "例会",
    "schedule": "毎週 木曜日 18:45～20:45",
    "contact_phone": "",
    "prefecture": "大阪府",
    "next_date": null,
    "start_time": null,
    "end_time": null,
    "recurrence": null,
    "building_name": null,
    "meeting_type": "通常",
    "official_url": "http://oosakafudann.sunnyday.jp/例会場案内/#i-8"
  },
  {
    "id": 839,
    "facility_name": "小田北生涯学習プラザ",
    "address": "尼崎市潮江1-11-1",
    "lat": 34.733021,
    "lng": 135.433365,
    "meeting_name": "家族会",
    "schedule": "奇数月 第3 火曜日 19:00～20:45",
    "contact_phone": "",
    "prefecture": "兵庫県",
    "next_date": null,
    "start_time": null,
    "end_time": null,
    "recurrence": null,
    "building_name": null,
    "meeting_type": "通常",
    "official_url": "meeting.html?mtg_id=1639&date=2026-05-01"
  },
  {
    "id": 840,
    "facility_name": "東灘区区民センたー",
    "address": "神戸市東灘区住吉東町5-1-16",
    "lat": 34.719044,
    "lng": 135.263123,
    "meeting_name": "家族会",
    "schedule": "偶数月 第3 土曜日 19:00～20:45",
    "contact_phone": "",
    "prefecture": "兵庫県",
    "next_date": null,
    "start_time": null,
    "end_time": null,
    "recurrence": null,
    "building_name": null,
    "meeting_type": "通常",
    "official_url": "meeting.html?mtg_id=1640&date=2026-05-01"
  },
  {
    "id": 841,
    "facility_name": "垂水病院",
    "address": "兵庫県神戸市西区押部谷町西盛566番地",
    "lat": 34.763626,
    "lng": 135.026047,
    "meeting_name": "三杉会",
    "schedule": "4･5･6･7･8･9･10･11･12月 第1･2･3･4･5 木曜日 13:30～14:30 開催を中止する事があります。事前にご確認願います。",
    "contact_phone": "",
    "prefecture": "兵庫県",
    "next_date": null,
    "start_time": null,
    "end_time": null,
    "recurrence": null,
    "building_name": null,
    "meeting_type": "通常",
    "official_url": "https://www.facebook.com/mikidanshukai/"
  },
  {
    "id": 842,
    "facility_name": "フラワータウン市民センター",
    "address": "兵庫県三田市武庫が丘7丁目3-1",
    "lat": 34.886959,
    "lng": 135.202698,
    "meeting_name": "例会",
    "schedule": "第1･3 火曜日 19:00～20:30 第2･4･5 月曜日 19:00～20:30",
    "contact_phone": "",
    "prefecture": "兵庫県",
    "next_date": null,
    "start_time": null,
    "end_time": null,
    "recurrence": null,
    "building_name": null,
    "meeting_type": "通常",
    "official_url": "meeting.html?mtg_id=1254&date=2026-05-01"
  },
  {
    "id": 843,
    "facility_name": "中央公民館",
    "address": "兵庫県伊丹市千僧1-1",
    "lat": 34.784084,
    "lng": 135.400986,
    "meeting_name": "例会",
    "schedule": "第2･4 金曜日 19:00～20:45 祝日除く",
    "contact_phone": "",
    "prefecture": "兵庫県",
    "next_date": null,
    "start_time": null,
    "end_time": null,
    "recurrence": null,
    "building_name": null,
    "meeting_type": "通常",
    "official_url": "meeting.html?mtg_id=1227&date=2026-05-01"
  },
  {
    "id": 844,
    "facility_name": "宝塚市総合福祉センター",
    "address": "兵庫県宝塚市安倉西2-1-1",
    "lat": 34.799648,
    "lng": 135.368195,
    "meeting_name": "例会",
    "schedule": "毎週 火曜日 19:00～20:45",
    "contact_phone": "",
    "prefecture": "兵庫県",
    "next_date": null,
    "start_time": null,
    "end_time": null,
    "recurrence": null,
    "building_name": null,
    "meeting_type": "通常",
    "official_url": "meeting.html?mtg_id=1232&date=2026-05-01"
  },
  {
    "id": 845,
    "facility_name": "川西市総合センター",
    "address": "兵庫県川西市日高市1-2",
    "lat": 34.833298,
    "lng": 135.41272,
    "meeting_name": "例会",
    "schedule": "毎週 木曜日 18:50～20:40",
    "contact_phone": "",
    "prefecture": "兵庫県",
    "next_date": null,
    "start_time": null,
    "end_time": null,
    "recurrence": null,
    "building_name": null,
    "meeting_type": "通常",
    "official_url": "http://www.voluntary.jp/weblog/RedirectServlet?npoURL=dansyukai"
  },