[
  {
    "id": 550,
    "facility_name": "余市町中央公民館",
    "address": "余市郡余市町大川町4丁目143",
    "lat": 43.190907,
    "lng": 140.794754,
    "meeting_name": "余市新生断酒会",
    "schedule": "",
    "contact_phone": "0135-23-5001",
    "prefecture": "北海道",
    "next_date": null,
    "start_time": null,
    "end_time": null,
    "recurrence": null,
    "building_name": null,
    "meeting_type": "通常",
    "official_url": "http://h-dansyurengoukai.com"
  },
  {
    "id": 551,
    "facility_name": "函館市総合福祉センター",
    "address": "函館市若松町33番6号",
    "lat": 41.776939,
    "lng": 140.731369,
    "meeting_name": "函館断酒会",
    "schedule": "",
    "contact_phone": "0138-22-6262",
    "prefecture": "北海道",
    "next_date": null,
    "start_time": null,
    "end_time": null,
    "recurrence": null,
    "building_name": null,
    "meeting_type": "通常",
    "official_url": "http://h-dansyurengoukai.com/"
  },
  {
    "id": 552,
    "facility_name": "北広島市芸術文化ホール",
    "address": "北広島市中央6丁目2-1",
    "lat": 42.979164,
    "lng": 141.565048,
    "meeting_name": "北広島断酒会",
    "schedule": "",
    "contact_phone": "",
    "prefecture": "北海道",
    "next_date": null,
    "start_time": null,
    "end_time": null,
    "recurrence": null,
    "building_name": null,
    "meeting_type": "通常",
    "official_url": "http://h-dansyurengoukai.com"
  },
  {
    "id": 553,
    "facility_name": "名寄市総合福祉センター",
    "address": "名寄市西1条南12丁目",
    "lat": 44.342213,
    "lng": 142.462387,
    "meeting_name": "名寄断酒会",
    "schedule": "",
    "contact_phone": "01654-3-9862",
    "prefecture": "北海道",
    "next_date": null,
    "start_time": null,
    "end_time": null,
    "recurrence": null,
    "building_name": null,
    "meeting_type": "通常",
    "official_url": "http://h-dansyurengoukai.com"
  },
  {
    "id": 554,
    "facility_name": "早来保健センター　　安平町健康福祉課☎0145-29-7071台",
    "address": "安平町早来大町95（安平総合庁舎前）",
    "lat": 42.762218,
    "lng": 141.81897,
    "meeting_name": "安平断酒会",
    "schedule": "",
    "contact_phone": "0145-22-2735",
    "prefecture": "北海道",
    "next_date": null,
    "start_time": null,
    "end_time": null,
    "recurrence": null,
    "building_name": null,
    "meeting_type": "通常",
    "official_url": "http://h-dansyurengoukai.com/"
  },
  {
    "id": 555,
    "facility_name": "苫小牧市市民活動センター",
    "address": "苫小牧市若草町3丁目3-8",
    "lat": 42.635979,
    "lng": 141.603821,
    "meeting_name": "新生樽前",
    "schedule": "",
    "contact_phone": "0144-32-7111",
    "prefecture": "北海道",
    "next_date": null,
    "start_time": null,
    "end_time": null,
    "recurrence": null,
    "building_name": null,
    "meeting_type": "通常",
    "official_url": "http://h-dansyurengoukai.com/"
  },
  {
    "id": 556,
    "facility_name": "レンカルナ旭川",
    "address": "旭川市9条14丁目24番地",
    "lat": 43.777073,
    "lng": 142.352325,
    "meeting_name": "旭川中央断酒会",
    "schedule": "",
    "contact_phone": "",
    "prefecture": "北海道",
    "next_date": null,
    "start_time": null,
    "end_time": null,
    "recurrence": null,
    "building_name": null,
    "meeting_type": "通常",
    "official_url": "http://h-dansyurengoukai.com"
  },
  {
    "id": 557,
    "facility_name": "北星公民館",
    "address": "旭川市北門町8丁目",
    "lat": 43.785133,
    "lng": 142.348312,
    "meeting_name": "旭川北斗断酒会",
    "schedule": "",
    "contact_phone": "0166-52-5545",
    "prefecture": "北海道",
    "next_date": null,
    "start_time": null,
    "end_time": null,
    "recurrence": null,
    "building_name": null,
    "meeting_type": "通常",
    "official_url": "http://h-dansyurengoukai.com"
  },
  {
    "id": 558,
    "facility_name": "末広公民館",
    "address": "旭川市末広町",
    "lat": 43.802284,
    "lng": 142.382401,
    "meeting_name": "旭川北部断酒会",
    "schedule": "",
    "contact_phone": "0166-23-9299",
    "prefecture": "北海道",
    "next_date": null,
    "start_time": null,
    "end_time": null,
    "recurrence": null,
    "building_name": null,
    "meeting_type": "通常",
    "official_url": "http://h-dansyurengoukai.com"
  },
  {
    "id": 559,
    "facility_name": "いきいきセンター新旭川",
    "address": "旭川市新富1条3丁目",
    "lat": 43.793011,
    "lng": 142.385605,
    "meeting_name": "旭川断酒会",
    "schedule": "",
    "contact_phone": "0166-27-2287",
    "prefecture": "北海道",
    "next_date": null,
    "start_time": null,
    "end_time": null,
    "recurrence": null,
    "building_name": null,
    "meeting_type": "通常",
    "official_url": "http://h-dansyurengoukai.com"
  },
  {
    "id": 560,
    "facility_name": "東光公民館",
    "address": "旭川市東光10条3丁目",
    "lat": 43.745911,
    "lng": 142.396255,
    "meeting_name": "旭川断酒新生会",
    "schedule": "",
    "contact_phone": "0166-35-1708",
    "prefecture": "北海道",
    "next_date": null,
    "start_time": null,
    "end_time": null,
    "recurrence": null,
    "building_name": null,
    "meeting_type": "通常",
    "official_url": "http://h-dansyurengoukai.com"
  },
  {
    "id": 561,
    "facility_name": "旭川市永山公民館",
    "address": "旭川市永山",
    "lat": 43.787888,
    "lng": 142.393616,
    "meeting_name": "旭川東雲断酒会",
    "schedule": "",
    "contact_phone": "0166-48-1659",
    "prefecture": "北海道",
    "next_date": null,
    "start_time": null,
    "end_time": null,
    "recurrence": null,
    "building_name": null,
    "meeting_type": "通常",
    "official_url": "http://h-dansyurengoukai.com"
  },
  {
    "id": 562,
    "facility_name": "江別市総合社会福祉センター",
    "address": "江別市錦町14-87",
    "lat": 43.10202,
    "lng": 141.531036,
    "meeting_name": "江別断酒会",
    "schedule": "",
    "contact_phone": "011-385-1234",
    "prefecture": "北海道",
    "next_date": null,
    "start_time": null,
    "end_time": null,
    "recurrence": null,
    "building_name": null,
    "meeting_type": "通常",
    "official_url": "http://h-dansyurengoukai.com"
  },
  {
    "id": 563,
    "facility_name": "砂川市立病院",
    "address": "砂川市西5条北3丁目1",
    "lat": 43.494602,
    "lng": 141.904266,
    "meeting_name": "砂川ピンネ断酒会",
    "schedule": "",
    "contact_phone": "0125-54-2131",
    "prefecture": "北海道",
    "next_date": null,
    "start_time": null,
    "end_time": null,
    "recurrence": null,
    "building_name": null,
    "meeting_type": "通常",
    "official_url": "http://h-dansyurengoukai.com"
  },
  {
    "id": 564,
    "facility_name": "地域活動支援センター「夢の匠」",
    "address": "虻田郡倶知安町南6条西2丁目",
    "lat": 42.895451,
    "lng": 140.748749,
    "meeting_name": "羊蹄断酒会",
    "schedule": "",
    "contact_phone": "080-6078-6303",
    "prefecture": "北海道",
    "next_date": null,
    "start_time": null,
    "end_time": null,
    "recurrence": null,
    "building_name": null,
    "meeting_type": "通常",
    "official_url": "http://h-dansyurengoukai.com"
  },
  {
    "id": 565,
    "facility_name": "のぞみコミュニィティセンター会議室",
    "address": "苫小牧市澄川町6丁目15-9",
    "lat": 42.622658,
    "lng": 141.508774,
    "meeting_name": "例会",
    "schedule": "毎週 水曜日 19:00～21:00 年末年始の水曜日は休み。祭日の水曜日は例会を開催しています。",
    "contact_phone": "",
    "prefecture": "北海道",
    "next_date": null,
    "start_time": null,
    "end_time": null,
    "recurrence": null,
    "building_name": null,
    "meeting_type": "通常",
    "official_url": "http://h-dansyurengoukai.com"
  },
  {
    "id": 566,
    "facility_name": "自宅　オンライン",
    "address": "札幌市北区屯田",
    "lat": 43.119476,
    "lng": 141.341888,
    "meeting_name": "北海道オンライン「ﾌﾘｰﾄｰｸｺﾐｭﾆﾃｨこころの集い」",
    "schedule": "1･2･3･4･5･6･7･8･9･10･11･12月 第1･2･3･4･5･最終週 日曜日 19:00～20:30 生きづらさを抱えた人集まれ、お話をしましょう。",
    "contact_phone": "",
    "prefecture": "北海道",
    "next_date": null,
    "start_time": null,
    "end_time": null,
    "recurrence": null,
    "building_name": null,
    "meeting_type": "その他",
    "official_url": "https://sites.google.com/view/hokkaidoudansyurengoukai/"
  },
  {
    "id": 567,
    "facility_name": "北見市総合福祉会館",
    "address": "北見市寿町3丁目4-1",
    "lat": 43.813492,
    "lng": 143.881958,
    "meeting_name": "北見断酒会",
    "schedule": "",
    "contact_phone": "0157-61-8181",
    "prefecture": "北海道",
    "next_date": null,
    "start_time": null,
    "end_time": null,
    "recurrence": null,
    "building_name": null,
    "meeting_type": "通常",
    "official_url": "http://h-dansyurengoukai.com"
  },
  {
    "id": 568,
    "facility_name": "千歳市総合福祉センター",
    "address": "千歳市東雲町2丁目",
    "lat": 42.820759,
    "lng": 141.650665,
    "meeting_name": "千歳断酒会",
    "schedule": "",
    "contact_phone": "0123-24-3131",
    "prefecture": "北海道",
    "next_date": null,
    "start_time": null,
    "end_time": null,
    "recurrence": null,
    "building_name": null,
    "meeting_type": "通常",
    "official_url": "http://h-dansyurengoukai.com"
  },
  {
    "id": 569,
    "facility_name": "小樽市民センター",
    "address": "小樽市色内2丁目13番5号　電話：0134-25-9900",
    "lat": 43.199898,
    "lng": 140.99794,
    "meeting_name": "小樽断酒会",
    "schedule": "1･2･3･4･5･6･7･8･9･10･11･12月 第1･2･3･4･5 金曜日 18:30～20:00",
    "contact_phone": "",
    "prefecture": "北海道",
    "next_date": null,
    "start_time": null,
    "end_time": null,
    "recurrence": null,
    "building_name": null,
    "meeting_type": "通常",
    "official_url": "http://h-dansyurengoukai.com"
  },
  {
    "id": 570,
    "facility_name": "小樽市民センター2F　２号室",
    "address": "小樽市色内2丁目13-5",
    "lat": 43.199898,
    "lng": 140.99794,
    "meeting_name": "小樽断酒新生会",
    "schedule": "",
    "contact_phone": "",
    "prefecture": "北海道",
    "next_date": null,
    "start_time": null,
    "end_time": null,
    "recurrence": null,
    "building_name": null,
    "meeting_type": "通常",
    "official_url": "http://h-dansyurengoukai.com"
  },
  {
    "id": 571,
    "facility_name": "札幌市北区民センター",
    "address": "札幌市北25条西5丁目",
    "lat": 43.090778,
    "lng": 141.340973,
    "meeting_name": "札幌断酒会　昼例会",
    "schedule": "9月 10日 13:30～15:00 9月 24日 13:30～15:00 10月 8日 13:30～15:00 10月 22日 13:30～15:00",
    "contact_phone": "",
    "prefecture": "北海道",
    "next_date": null,
    "start_time": null,
    "end_time": null,
    "recurrence": null,
    "building_name": null,
    "meeting_type": "その他",
    "official_url": "http://h-dansyurengoukai.com"
  },
  {
    "id": 572,
    "facility_name": "札幌市北区民センター",
    "address": "札幌市北区北25条西6丁目",
    "lat": 43.091721,
    "lng": 141.340225,
    "meeting_name": "札幌断酒会（家族例会）",
    "schedule": "",
    "contact_phone": "011-757-3511",
    "prefecture": "北海道",
    "next_date": null,
    "start_time": null,
    "end_time": null,
    "recurrence": null,
    "building_name": null,
    "meeting_type": "その他",
    "official_url": "http://h-dansyurengoukai.com"
  },
  {
    "id": 573,
    "facility_name": "札幌市中央区民センター・札幌北区民センター",
    "address": "札幌市中央区南2条西10丁目",
    "lat": 43.056469,
    "lng": 141.342545,
    "meeting_name": "札幌断酒新生会",
    "schedule": "9月 3日 18:30～20:00 9月 17日 18:30～20:00 10月 1日 18:30～20:00 10月 15日 18:30～20:00",
    "contact_phone": "011-271-1100",
    "prefecture": "北海道",
    "next_date": null,
    "start_time": null,
    "end_time": null,
    "recurrence": null,
    "building_name": null,
    "meeting_type": "その他",
    "official_url": "http://h-dansyurengoukai.com"
  },
  {
    "id": 574,
    "facility_name": "交流プラザさいわい",
    "address": "釧路市幸町9-1",
    "lat": 42.985924,
    "lng": 144.380157,
    "meeting_name": "釧路断酒会",
    "schedule": "",
    "contact_phone": "0154-64-6471",
    "prefecture": "北海道",
    "next_date": null,
    "start_time": null,
    "end_time": null,
    "recurrence": null,
    "building_name": null,
    "meeting_type": "その他",
    "official_url": "http://h-dansyurengoukai.com"
  },
  {
    "id": 575,
    "facility_name": "芙蓉会病院機能回復訓練室",
    "address": "青森県青森市雲谷山吹93-1",
    "lat": 40.747456,
    "lng": 140.778076,
    "meeting_name": "コロナ禍におけるアルコールの存在",
    "schedule": "6月 最終週 火曜日 13:00～14:00",
    "contact_phone": "",
    "prefecture": "青森県",
    "next_date": null,
    "start_time": null,
    "end_time": null,
    "recurrence": null,
    "building_name": null,
    "meeting_type": "通常",
    "official_url": "gallery/mtg_g/1972/C7DFC35B-8A5B-4A09-8FE2-26B0D033C93B.jpeg"
  },
  {
    "id": 576,
    "facility_name": "芙蓉会病院三階機能回復訓練室",
    "address": "青森県青森市雲谷山吹93-1  芙蓉会病院",
    "lat": 40.747456,
    "lng": 140.778076,
    "meeting_name": "ミーティング",
    "schedule": "3月 最終週 火曜日 13:00～14:00 3月 最終週 火曜日 13:00～14:00",
    "contact_phone": "",
    "prefecture": "青森県",
    "next_date": null,
    "start_time": null,
    "end_time": null,
    "recurrence": null,
    "building_name": null,
    "meeting_type": "通常",
    "official_url": "meeting.html?mtg_id=1947&date=2026-05-01"
  },
  {
    "id": 577,
    "facility_name": "芙蓉会病院機能回復訓練室",
    "address": "芙蓉会病院",
    "lat": 33.82246,
    "lng": 130.66069,
    "meeting_name": "ミーティング",
    "schedule": "",
    "contact_phone": "",
    "prefecture": "青森県",
    "next_date": null,
    "start_time": null,
    "end_time": null,
    "recurrence": null,
    "building_name": null,
    "meeting_type": "通常",
    "official_url": "meeting.html?mtg_id=1971&date=2026-05-01"
  },
  {
    "id": 578,
    "facility_name": "芙蓉会病院",
    "address": "青森県青森市雲谷山吹93-1 芙蓉会病院3階（機能回復訓練室）",
    "lat": 40.747456,
    "lng": 140.778076,
    "meeting_name": "芙蓉会病院院内断酒会「HALT」",
    "schedule": "2月 16日 13:00～14:00 最終火曜日が休日の為前倒し。",
    "contact_phone": "",
    "prefecture": "青森県",
    "next_date": null,
    "start_time": null,
    "end_time": null,
    "recurrence": null,
    "building_name": null,
    "meeting_type": "通常",
    "official_url": "gallery/mtg_g/1946/34AF5FB5-9A8C-4293-9238-7C983E29203E.jpeg"
  }
]