{
  "meta": {
    "version": 1,
    "generated_at": "2026-06-05",
    "total_venues": 191,
    "total_meetings": 137,
    "source": "enrich_venues.py (SQLite on tyo) + schema migration for nationwide scalability",
    "note": "直接編集禁止。enrich_venues.py で生成。meetings は常に正規化されたキーを持つ。"
  },
  "venues": [
    {
      "id": 255,
      "facility_name": "ウェルネス柏",
      "address": "千葉県柏市柏下６５−１−６５−１",
      "prefecture": "千葉県",
      "city": "柏市",
      "lat": 35.8669173,
      "lng": 139.9866516,
      "meetings": []
    },
    {
      "id": 258,
      "facility_name": "鎌ケ谷市 総合福祉保健センター",
      "address": "千葉県鎌ケ谷市新鎌ケ谷２丁目６−１",
      "prefecture": "千葉県",
      "city": "鎌ケ谷市",
      "lat": 35.7768081,
      "lng": 140.00084,
      "meetings": []
    },
    {
      "id": 156,
      "facility_name": "あいパル上戸田地域交流センター",
      "address": "戸田市上戸田２－２１－１",
      "prefecture": "埼玉県",
      "city": "戸田市",
      "lat": 35.8125457,
      "lng": 139.6808877,
      "meetings": []
    },
    {
      "id": 68,
      "facility_name": "さいたま市 生涯学習総合センター",
      "address": "埼玉県さいたま市大宮区桜木町１丁目１０−１８",
      "prefecture": "埼玉県",
      "city": "さいたま市 大宮区",
      "lat": 35.9053747,
      "lng": 139.6187344,
      "meetings": []
    },
    {
      "id": 144,
      "facility_name": "さいたま市民会館おおみや",
      "address": "さいたま市大宮区大門2-118  大宮門街６F",
      "prefecture": "埼玉県",
      "city": "さいたま市 大宮区",
      "lat": 35.9072048,
      "lng": 139.6277922,
      "meetings": []
    },
    {
      "id": 148,
      "facility_name": "さいたま新都心けやき広場",
      "address": "さいたま市中央区新都心10",
      "prefecture": "埼玉県",
      "city": "さいたま市 中央区",
      "lat": 35.8933795,
      "lng": 139.6309249,
      "meetings": []
    },
    {
      "id": 166,
      "facility_name": "はにぽんプラザ",
      "address": "本庄市銀座1-1-1",
      "prefecture": "埼玉県",
      "city": "本庄市",
      "lat": 36.238615,
      "lng": 139.1848107,
      "meetings": []
    },
    {
      "id": 140,
      "facility_name": "ふじみ野市市民交流プラザ　フクトピア",
      "address": "ふじみ野市福岡1-2-5",
      "prefecture": "埼玉県",
      "city": "ふじみ野市",
      "lat": 35.8780612,
      "lng": 139.5218928,
      "meetings": []
    },
    {
      "id": 149,
      "facility_name": "ふれあい館",
      "address": "さいたま市浦和区常盤9丁目30番22号",
      "prefecture": "埼玉県",
      "city": "さいたま市 浦和区",
      "lat": 35.871148,
      "lng": 139.642795,
      "meetings": []
    },
    {
      "id": 131,
      "facility_name": "コミュニティセンターいわつき",
      "address": "さいたま市岩槻区本町1-10-7",
      "prefecture": "埼玉県",
      "city": "さいたま市 岩槻区",
      "lat": 35.9470694,
      "lng": 139.6917085,
      "meetings": []
    },
    {
      "id": 65,
      "facility_name": "下落合コミュニティセンター",
      "address": "埼玉県さいたま市中央区下落合１７１２ 103 スカイレジデンシャル",
      "prefecture": "埼玉県",
      "city": "さいたま市 中央区",
      "lat": 35.8847567,
      "lng": 139.6367987,
      "meetings": []
    },
    {
      "id": 135,
      "facility_name": "下落合コミュニティーセンター",
      "address": "さいたま市中央区大字下落合1712     NW -301・401",
      "prefecture": "埼玉県",
      "city": "さいたま市 中央区",
      "lat": 35.8847567,
      "lng": 139.6367987,
      "meetings": []
    },
    {
      "id": 146,
      "facility_name": "下落合コミュニティーセンター",
      "address": "さいたま市中央区大字下落合1712 NW -301・401",
      "prefecture": "埼玉県",
      "city": "さいたま市 中央区",
      "lat": 35.8847567,
      "lng": 139.6367987,
      "meetings": []
    },
    {
      "id": 147,
      "facility_name": "北浦和公園音楽噴水前",
      "address": "さいたま市浦和区常盤9丁目30",
      "prefecture": "埼玉県",
      "city": "さいたま市 浦和区",
      "lat": 35.8710585,
      "lng": 139.6425388,
      "meetings": []
    },
    {
      "id": 142,
      "facility_name": "和光市白子吹上コミュニティーセンター",
      "address": "和光市白子3-8-21",
      "prefecture": "埼玉県",
      "city": "和光市",
      "lat": 35.78893619999999,
      "lng": 139.6282305,
      "meetings": []
    },
    {
      "id": 63,
      "facility_name": "埼玉県障害者交流センター",
      "address": "埼玉県さいたま市浦和区大原３丁目１０−１",
      "prefecture": "埼玉県",
      "city": "さいたま市 浦和区",
      "lat": 35.8946229,
      "lng": 139.6491946,
      "meetings": []
    },
    {
      "id": 150,
      "facility_name": "大宮門街レイボックホール",
      "address": "さいたま市大宮区大門町2-118　大宮門街4-8F",
      "prefecture": "埼玉県",
      "city": "さいたま市 大宮区",
      "lat": 35.9073411,
      "lng": 139.6273466,
      "meetings": []
    },
    {
      "id": 137,
      "facility_name": "富士見市針ヶ谷コミュニティーセンター",
      "address": "富士見市針ヶ谷1-38",
      "prefecture": "埼玉県",
      "city": "富士見市",
      "lat": 35.8320496,
      "lng": 139.5539752,
      "meetings": []
    },
    {
      "id": 128,
      "facility_name": "岩槻駅東口 コミュニティーセンター",
      "address": "さいたま市岩槻区本町3-1-1",
      "prefecture": "埼玉県",
      "city": "さいたま市 岩槻区",
      "lat": 35.950119,
      "lng": 139.6932583,
      "meetings": []
    },
    {
      "id": 157,
      "facility_name": "川口並木公民館",
      "address": "川口市並木2-8-2",
      "prefecture": "埼玉県",
      "city": "川口市",
      "lat": 35.8168722,
      "lng": 139.7089682,
      "meetings": []
    },
    {
      "id": 151,
      "facility_name": "川口幸栄公民館",
      "address": "川口市幸町３－８－３３",
      "prefecture": "埼玉県",
      "city": "川口市",
      "lat": 35.8054912,
      "lng": 139.7178743,
      "meetings": []
    },
    {
      "id": 155,
      "facility_name": "川口里公民館",
      "address": "川口市大字里１４７８－１",
      "prefecture": "埼玉県",
      "city": "川口市",
      "lat": 35.8285958,
      "lng": 139.7308348,
      "meetings": []
    },
    {
      "id": 141,
      "facility_name": "川越市高階市民センター",
      "address": "川越市藤間27-1",
      "prefecture": "埼玉県",
      "city": "川越市",
      "lat": 35.8859582,
      "lng": 139.4965871,
      "meetings": []
    },
    {
      "id": 129,
      "facility_name": "市民プラザかぞ",
      "address": "加須市中央2-4-17",
      "prefecture": "埼玉県",
      "city": "加須市",
      "lat": 36.1234174,
      "lng": 139.59864,
      "meetings": []
    },
    {
      "id": 139,
      "facility_name": "所沢市立中央公民館",
      "address": "所沢市元町27-5",
      "prefecture": "埼玉県",
      "city": "所沢市",
      "lat": 35.7921822,
      "lng": 139.4639861,
      "meetings": []
    },
    {
      "id": 138,
      "facility_name": "朝霞市産業文化センター",
      "address": "朝霞市浜崎669-1",
      "prefecture": "埼玉県",
      "city": "朝霞市",
      "lat": 35.8133138,
      "lng": 139.590402,
      "meetings": []
    },
    {
      "id": 159,
      "facility_name": "東松山市松山市民活動センター",
      "address": "東松山市松本町1-9-35",
      "prefecture": "埼玉県",
      "city": "東松山市",
      "lat": 36.037929,
      "lng": 139.4109623,
      "meetings": []
    },
    {
      "id": 158,
      "facility_name": "桶川公民館",
      "address": "桶川市西1-5-21",
      "prefecture": "埼玉県",
      "city": "桶川市",
      "lat": 36.0026223,
      "lng": 139.5616561,
      "meetings": []
    },
    {
      "id": 134,
      "facility_name": "武蔵浦和コミュニティセンター",
      "address": "さいたま市南区別所7-20-1 サウスピア8F",
      "prefecture": "埼玉県",
      "city": "さいたま市 南区",
      "lat": 35.8452444,
      "lng": 139.6454735,
      "meetings": []
    },
    {
      "id": 64,
      "facility_name": "浦和ふれあい館",
      "address": "埼玉県さいたま市浦和区常盤９丁目３０−２２",
      "prefecture": "埼玉県",
      "city": "さいたま市 浦和区",
      "lat": 35.8711464,
      "lng": 139.6428014,
      "meetings": []
    },
    {
      "id": 136,
      "facility_name": "浦和コミュニティーセンター",
      "address": "さいたま市浦和区東高砂町11-1 浦和",
      "prefecture": "埼玉県",
      "city": "さいたま市 浦和区",
      "lat": 35.858568,
      "lng": 139.6590796,
      "meetings": []
    },
    {
      "id": 165,
      "facility_name": "深谷公民館",
      "address": "深谷市仲町20-2",
      "prefecture": "埼玉県",
      "city": "深谷市",
      "lat": 36.2006332,
      "lng": 139.2842876,
      "meetings": []
    },
    {
      "id": 168,
      "facility_name": "済生会鴻巣病院",
      "address": "鴻巣市八幡田849",
      "prefecture": "埼玉県",
      "city": "鴻巣市",
      "lat": 36.0730901,
      "lng": 139.5021799,
      "meetings": []
    },
    {
      "id": 162,
      "facility_name": "熊谷市市民ホール",
      "address": "熊谷市仲町19",
      "prefecture": "埼玉県",
      "city": "熊谷市",
      "lat": 36.1475166,
      "lng": 139.3829333,
      "meetings": [
        {
          "meeting_name": "",
          "meeting_type": null,
          "next_date": "",
          "start_time": "",
          "end_time": "",
          "recurrence": "",
          "contact_phone": "080-5514-7640",
          "official_url": "",
          "verified": 0
        }
      ]
    },
    {
      "id": 169,
      "facility_name": "皆野病院",
      "address": "皆野町皆野2031-1",
      "prefecture": "埼玉県",
      "city": "皆野町",
      "lat": 36.0770979,
      "lng": 139.1012093,
      "meetings": []
    },
    {
      "id": 130,
      "facility_name": "粕壁南公民館",
      "address": "春日部市南1-12-23",
      "prefecture": "埼玉県",
      "city": "春日部市",
      "lat": 35.9756235,
      "lng": 139.7588851,
      "meetings": []
    },
    {
      "id": 133,
      "facility_name": "草加市立勤労福祉会館",
      "address": "草加市旭町6-13-20",
      "prefecture": "埼玉県",
      "city": "草加市",
      "lat": 35.85132249999999,
      "lng": 139.792294,
      "meetings": []
    },
    {
      "id": 153,
      "facility_name": "蕨南公民館",
      "address": "蕨市南町２－２３－１９",
      "prefecture": "埼玉県",
      "city": "蕨市",
      "lat": 35.8183185,
      "lng": 139.6961789,
      "meetings": []
    },
    {
      "id": 152,
      "facility_name": "蕨市中央公民館",
      "address": "蕨市中央４－２１－２９",
      "prefecture": "埼玉県",
      "city": "蕨市",
      "lat": 35.8258595,
      "lng": 139.6820328,
      "meetings": []
    },
    {
      "id": 154,
      "facility_name": "蕨旭町公民館",
      "address": "蕨市中央１－２３－８",
      "prefecture": "埼玉県",
      "city": "蕨市",
      "lat": 35.8267645,
      "lng": 139.6910616,
      "meetings": []
    },
    {
      "id": 161,
      "facility_name": "行田市長野公民館",
      "address": "行田市長野1-4-8",
      "prefecture": "埼玉県",
      "city": "行田市",
      "lat": 36.1430166,
      "lng": 139.4688292,
      "meetings": []
    },
    {
      "id": 132,
      "facility_name": "越谷市中央市民会館",
      "address": "越谷市越ヶ谷4-1-1",
      "prefecture": "埼玉県",
      "city": "越谷市",
      "lat": 35.8897351,
      "lng": 139.7915,
      "meetings": []
    },
    {
      "id": 160,
      "facility_name": "鴻巣市市民センター",
      "address": "鴻巣市赤見台1-15-5",
      "prefecture": "埼玉県",
      "city": "鴻巣市",
      "lat": 36.0863971,
      "lng": 139.4787065,
      "meetings": []
    },
    {
      "id": 226,
      "facility_name": "",
      "address": "国立市富士見台2-38-5",
      "prefecture": "東京都",
      "city": "国立市",
      "lat": 35.6874205,
      "lng": 139.4445749,
      "meetings": [
        {
          "meeting_name": "連合本部例会",
          "meeting_type": null,
          "next_date": "",
          "start_time": "",
          "end_time": "",
          "recurrence": "連合本部例会：第四金曜日　19時〜21時",
          "contact_phone": "090-6378-9350",
          "official_url": "",
          "verified": 0
        }
      ]
    },
    {
      "id": 227,
      "facility_name": "",
      "address": "立川市柴崎町2-15-8",
      "prefecture": "東京都",
      "city": "立川市",
      "lat": 35.694704,
      "lng": 139.4080884,
      "meetings": [
        {
          "meeting_name": "立川第二例会",
          "meeting_type": null,
          "next_date": "",
          "start_time": "",
          "end_time": "",
          "recurrence": "立川第二例会：第三木曜日　19時〜21時",
          "contact_phone": "042-507-8409",
          "official_url": "",
          "verified": 0
        }
      ]
    },
    {
      "id": 228,
      "facility_name": "",
      "address": "国分寺市本多1-7-1",
      "prefecture": "東京都",
      "city": "国分寺市",
      "lat": 35.7053251,
      "lng": 139.4825249,
      "meetings": [
        {
          "meeting_name": "国分寺例会",
          "meeting_type": null,
          "next_date": "",
          "start_time": "",
          "end_time": "",
          "recurrence": "19時〜21時",
          "contact_phone": "042-935-3772",
          "official_url": "",
          "verified": 0
        }
      ]
    },
    {
      "id": 229,
      "facility_name": "",
      "address": "日野市本町7-5-23",
      "prefecture": "東京都",
      "city": "日野市",
      "lat": 35.671354,
      "lng": 139.3950975,
      "meetings": [
        {
          "meeting_name": "日野例会",
          "meeting_type": null,
          "next_date": "",
          "start_time": "",
          "end_time": "",
          "recurrence": "19時〜21時",
          "contact_phone": "090-6378-9350",
          "official_url": "",
          "verified": 0
        }
      ]
    },
    {
      "id": 230,
      "facility_name": "",
      "address": "多摩市関戸4-72",
      "prefecture": "東京都",
      "city": "多摩市",
      "lat": 35.6496055,
      "lng": 139.4469699,
      "meetings": [
        {
          "meeting_name": "多摩市桜ヶ丘例会",
          "meeting_type": null,
          "next_date": "",
          "start_time": "",
          "end_time": "",
          "recurrence": "19時〜21時",
          "contact_phone": "042-376-2132",
          "official_url": "",
          "verified": 0
        }
      ]
    },
    {
      "id": 231,
      "facility_name": "",
      "address": "青梅市東青梅1-177-3",
      "prefecture": "東京都",
      "city": "青梅市",
      "lat": 35.7875016,
      "lng": 139.2741644,
      "meetings": [
        {
          "meeting_name": "青梅例会",
          "meeting_type": null,
          "next_date": "",
          "start_time": "",
          "end_time": "",
          "recurrence": "(昼） 14時〜16時",
          "contact_phone": "",
          "official_url": "",
          "verified": 0
        }
      ]
    },
    {
      "id": 232,
      "facility_name": "",
      "address": "立川市錦町3-12-25",
      "prefecture": "東京都",
      "city": "立川市",
      "lat": 35.6911739,
      "lng": 139.4163691,
      "meetings": [
        {
          "meeting_name": "錦懇談会",
          "meeting_type": null,
          "next_date": "",
          "start_time": "",
          "end_time": "",
          "recurrence": "14時〜16時",
          "contact_phone": "080-5198-3193",
          "official_url": "",
          "verified": 0
        }
      ]
    },
    {
      "id": 234,
      "facility_name": "",
      "address": "小平市小川西町4-10-13",
      "prefecture": "東京都",
      "city": "小平市",
      "lat": 35.7351364,
      "lng": 139.4617911,
      "meetings": [
        {
          "meeting_name": "小平例会",
          "meeting_type": null,
          "next_date": "",
          "start_time": "",
          "end_time": "",
          "recurrence": "19時〜21時",
          "contact_phone": "042-935-3772",
          "official_url": "",
          "verified": 0
        }
      ]
    },
    {
      "id": 235,
      "facility_name": "",
      "address": "福生市福生2455",
      "prefecture": "東京都",
      "city": "福生市",
      "lat": 35.7423446,
      "lng": 139.3379224,
      "meetings": [
        {
          "meeting_name": "福生例会",
          "meeting_type": null,
          "next_date": "",
          "start_time": "",
          "end_time": "",
          "recurrence": "(昼） 14時〜16時 / (夜)   19時〜21時",
          "contact_phone": "080-4433-9110",
          "official_url": "",
          "verified": 0
        }
      ]
    },
    {
      "id": 236,
      "facility_name": "",
      "address": "多摩市永山1-5",
      "prefecture": "東京都",
      "city": "多摩市",
      "lat": 35.6280863,
      "lng": 139.4480621,
      "meetings": [
        {
          "meeting_name": "永山例会",
          "meeting_type": null,
          "next_date": "",
          "start_time": "",
          "end_time": "",
          "recurrence": "19時〜21時",
          "contact_phone": "042-376-2132",
          "official_url": "",
          "verified": 0
        }
      ]
    },
    {
      "id": 237,
      "facility_name": "",
      "address": "八王子市元本郷町3-24-1",
      "prefecture": "東京都",
      "city": "八王子市",
      "lat": 35.6664119,
      "lng": 139.3160567,
      "meetings": [
        {
          "meeting_name": "八王子例会",
          "meeting_type": null,
          "next_date": "",
          "start_time": "",
          "end_time": "",
          "recurrence": "(昼） 13時〜15時 / (夜)   19時〜21時",
          "contact_phone": "042-376-2132 / 090-6378-9350",
          "official_url": "",
          "verified": 0
        }
      ]
    },
    {
      "id": 239,
      "facility_name": "",
      "address": "東大和市南街５-３２",
      "prefecture": "東京都",
      "city": "東大和市",
      "lat": 35.7371714,
      "lng": 139.4315493,
      "meetings": [
        {
          "meeting_name": "東大和例会",
          "meeting_type": null,
          "next_date": "",
          "start_time": "",
          "end_time": "",
          "recurrence": "19時〜21時",
          "contact_phone": "080-5198-3193",
          "official_url": "",
          "verified": 0
        }
      ]
    },
    {
      "id": 28,
      "facility_name": "ハナクリニック",
      "address": "東京都江東区大島５丁目３６−８ 宍戸第３",
      "prefecture": "東京都",
      "city": "江東区",
      "lat": 35.6890568,
      "lng": 139.8363087,
      "meetings": []
    },
    {
      "id": 42,
      "facility_name": "公益財団法人 井之頭病院",
      "address": "東京都三鷹市上連雀４丁目１４−１",
      "prefecture": "東京都",
      "city": "三鷹市",
      "lat": 35.6969059,
      "lng": 139.5578962,
      "meetings": []
    },
    {
      "id": 27,
      "facility_name": "文京区",
      "address": "東京都文京区春日２丁目９−５",
      "prefecture": "東京都",
      "city": "文京区",
      "lat": 35.7132763,
      "lng": 139.7409537,
      "meetings": []
    },
    {
      "id": 233,
      "facility_name": "日商岩井マンション１階　集会場",
      "address": "国立市富士見台３-３２-２",
      "prefecture": "東京都",
      "city": "国立市",
      "lat": 35.686621,
      "lng": 139.4332965,
      "meetings": [
        {
          "meeting_name": "女性酒害者の集い（「ひまわりの会」）",
          "meeting_type": null,
          "next_date": "",
          "start_time": "",
          "end_time": "",
          "recurrence": "19時〜21時",
          "contact_phone": "090-7245-4226",
          "official_url": "",
          "verified": 0
        }
      ]
    },
    {
      "id": 238,
      "facility_name": "昭和会館１F休養室",
      "address": "昭島市松原町1-2-25",
      "prefecture": "東京都",
      "city": "昭島市",
      "lat": 35.7125926,
      "lng": 139.3577752,
      "meetings": [
        {
          "meeting_name": "昭島例会",
          "meeting_type": null,
          "next_date": "",
          "start_time": "",
          "end_time": "",
          "recurrence": "19時〜21時",
          "contact_phone": "080-3434-6185",
          "official_url": "",
          "verified": 0
        }
      ]
    },
    {
      "id": 41,
      "facility_name": "江東区文化センター",
      "address": "東京都江東区東陽４丁目１１−３",
      "prefecture": "東京都",
      "city": "江東区",
      "lat": 35.6727845,
      "lng": 139.8186824,
      "meetings": []
    },
    {
      "id": 39,
      "facility_name": "豊玉北６丁目１２−１",
      "address": "東京都練馬区豊玉北６丁目１２−１ 練馬区役所本庁舎 (地図",
      "prefecture": "東京都",
      "city": "練馬区",
      "lat": 35.7357846,
      "lng": 139.6517759,
      "meetings": []
    },
    {
      "id": 118,
      "facility_name": "シーサイドライン金沢八景駅集合",
      "address": "シーサイドライン金沢八景駅集合",
      "prefecture": "神奈川県",
      "city": null,
      "lat": 35.3312442,
      "lng": 139.6202471,
      "meetings": []
    },
    {
      "id": 80,
      "facility_name": "戸塚地区センター",
      "address": "神奈川県横浜市戸塚区戸塚町１２７ 横浜市戸塚センター",
      "prefecture": "神奈川県",
      "city": "横浜市 戸塚区",
      "lat": 35.3979389,
      "lng": 139.5326778,
      "meetings": []
    },
    {
      "id": 73,
      "facility_name": "横浜市戸塚公会堂",
      "address": "神奈川県横浜市戸塚区戸塚町１２７ 横浜市戸塚センター",
      "prefecture": "神奈川県",
      "city": "横浜市 戸塚区",
      "lat": 35.3979389,
      "lng": 139.5326778,
      "meetings": []
    },
    {
      "id": 81,
      "facility_name": "泉区社会福祉協議会",
      "address": "神奈川県横浜市泉区和泉中央南５丁目４−１３",
      "prefecture": "神奈川県",
      "city": "横浜市 泉区",
      "lat": 35.4150977,
      "lng": 139.4870634,
      "meetings": []
    },
    {
      "id": 126,
      "facility_name": "神奈川県三浦合同庁舎",
      "address": "神奈川県三浦市三崎町六合３２−３２",
      "prefecture": "神奈川県",
      "city": "三浦市",
      "lat": 35.1569734,
      "lng": 139.6387912,
      "meetings": []
    },
    {
      "id": 124,
      "facility_name": "神奈川県鎌倉保健福祉事務所",
      "address": "神奈川県鎌倉市由比ガ浜２丁目１６−１３",
      "prefecture": "神奈川県",
      "city": "鎌倉市",
      "lat": 35.3126147,
      "lng": 139.5471587,
      "meetings": []
    },
    {
      "id": 170,
      "facility_name": "茅ヶ崎市男女共同参画推進センターいこりあ",
      "address": "神奈川県茅ヶ崎市新栄町１２−１２ 茅ヶ崎トラスト",
      "prefecture": "神奈川県",
      "city": "茅ヶ崎市",
      "lat": 35.332342,
      "lng": 139.4046304,
      "meetings": []
    },
    {
      "id": 13,
      "facility_name": "まなぽーと大原（大原生涯学習センター）",
      "address": "東京都板橋区大原町５−１８",
      "prefecture": "東京都",
      "city": "板橋区",
      "lat": 35.7696747,
      "lng": 139.700139,
      "meetings": [
        {
          "meeting_name": "",
          "meeting_type": null,
          "next_date": "2026-06-02",
          "start_time": "18:30",
          "end_time": "20:30",
          "recurrence": "",
          "contact_phone": "",
          "official_url": "",
          "verified": 0
        }
      ]
    },
    {
      "id": 2,
      "facility_name": "品川区 荏原第五地域センター",
      "address": "東京都品川区二葉１丁目１−１−２",
      "prefecture": "東京都",
      "city": "品川区",
      "lat": 35.6082279,
      "lng": 139.7259931,
      "meetings": [
        {
          "meeting_name": "",
          "meeting_type": null,
          "next_date": "2026-06-02",
          "start_time": "18:30",
          "end_time": "20:30",
          "recurrence": "",
          "contact_phone": "",
          "official_url": "",
          "verified": 0
        }
      ]
    },
    {
      "id": 6,
      "facility_name": "東京都福祉保健局障害者福祉会館",
      "address": "東京都港区芝５丁目１８−２ 都営芝五丁目",
      "prefecture": "東京都",
      "city": "港区",
      "lat": 35.6482637,
      "lng": 139.7483749,
      "meetings": [
        {
          "meeting_name": "",
          "meeting_type": null,
          "next_date": "2026-06-02",
          "start_time": "13:30",
          "end_time": "15:30",
          "recurrence": "",
          "contact_phone": "",
          "official_url": "",
          "verified": 0
        }
      ]
    },
    {
      "id": 243,
      "facility_name": "",
      "address": "東京都福生市福生１０１４−１０",
      "prefecture": "東京都",
      "city": "福生市",
      "lat": 35.7422623,
      "lng": 139.3276923,
      "meetings": [
        {
          "meeting_name": "",
          "meeting_type": null,
          "next_date": "2026-06-03",
          "start_time": "13:00",
          "end_time": "16:00",
          "recurrence": "",
          "contact_phone": "",
          "official_url": "",
          "verified": 0
        }
      ]
    },
    {
      "id": 26,
      "facility_name": "十条台区民センター",
      "address": "東京都北区中十条１丁目２−１８",
      "prefecture": "東京都",
      "city": "北区",
      "lat": 35.7576949,
      "lng": 139.729642,
      "meetings": [
        {
          "meeting_name": "",
          "meeting_type": null,
          "next_date": "2026-06-03",
          "start_time": "18:30",
          "end_time": "20:30",
          "recurrence": "",
          "contact_phone": "",
          "official_url": "",
          "verified": 0
        }
      ]
    },
    {
      "id": 34,
      "facility_name": "協働ステーション中央",
      "address": "東京都中央区日本橋小伝馬町５−１",
      "prefecture": "東京都",
      "city": "中央区",
      "lat": 35.6909163,
      "lng": 139.7770622,
      "meetings": [
        {
          "meeting_name": "",
          "meeting_type": null,
          "next_date": "2026-06-03",
          "start_time": "18:30",
          "end_time": "20:30",
          "recurrence": "",
          "contact_phone": "",
          "official_url": "",
          "verified": 0
        }
      ]
    },
    {
      "id": 3,
      "facility_name": "自立支援センター",
      "address": "自立支援センター",
      "prefecture": "東京都",
      "city": null,
      "lat": 35.752978,
      "lng": 139.734183,
      "meetings": [
        {
          "meeting_name": "",
          "meeting_type": null,
          "next_date": "2026-06-03",
          "start_time": "18:30",
          "end_time": "20:30",
          "recurrence": "",
          "contact_phone": "",
          "official_url": "",
          "verified": 0
        }
      ]
    },
    {
      "id": 112,
      "facility_name": "いきいきセンター金沢",
      "address": "いきいきセンター金沢",
      "prefecture": "神奈川県",
      "city": null,
      "lat": 35.3393265,
      "lng": 139.621596,
      "meetings": [
        {
          "meeting_name": "",
          "meeting_type": null,
          "next_date": "2026-06-03",
          "start_time": "19:00",
          "end_time": "20:15",
          "recurrence": "",
          "contact_phone": "",
          "official_url": "",
          "verified": 0
        }
      ]
    },
    {
      "id": 117,
      "facility_name": "小田原市保健センター",
      "address": "神奈川県小田原市酒匂２丁目３２−１６",
      "prefecture": "神奈川県",
      "city": "小田原市",
      "lat": 35.268425,
      "lng": 139.1849158,
      "meetings": [
        {
          "meeting_name": "",
          "meeting_type": null,
          "next_date": "2026-06-03",
          "start_time": "19:00",
          "end_time": "21:00",
          "recurrence": "",
          "contact_phone": "",
          "official_url": "",
          "verified": 0
        }
      ]
    },
    {
      "id": 92,
      "facility_name": "川崎区保健福祉センターパレール5階",
      "address": "川崎区保健福祉センターパレール5階",
      "prefecture": "神奈川県",
      "city": "川崎区",
      "lat": 35.5296778,
      "lng": 139.7038514,
      "meetings": [
        {
          "meeting_name": "",
          "meeting_type": null,
          "next_date": "2026-06-03",
          "start_time": "19:00",
          "end_time": "20:45",
          "recurrence": "",
          "contact_phone": "",
          "official_url": "",
          "verified": 0
        }
      ]
    },
    {
      "id": 74,
      "facility_name": "横浜市泥亀地域ケアプラザ",
      "address": "神奈川県横浜市金沢区泥亀１丁目２１−５",
      "prefecture": "神奈川県",
      "city": "横浜市 金沢区",
      "lat": 35.3391896,
      "lng": 139.6217448,
      "meetings": [
        {
          "meeting_name": "",
          "meeting_type": null,
          "next_date": "2026-06-03",
          "start_time": "19:00",
          "end_time": "20:15",
          "recurrence": "",
          "contact_phone": "",
          "official_url": "",
          "verified": 0
        }
      ]
    },
    {
      "id": 8,
      "facility_name": "両国駅前会館（ライオンズステーション南側１F）墨田区両国２丁目２０−１２ ライオンズステーションプラザ両国 (地図)",
      "address": "両国駅前会館（ライオンズステーション南側１F）墨田区両国２丁目２０−１２ ライオンズステーションプラザ両国 (地図)",
      "prefecture": "東京都",
      "city": "両国駅前会館（ライオンズステーション南側１F）墨田区",
      "lat": 35.6953018,
      "lng": 139.7926487,
      "meetings": [
        {
          "meeting_name": "",
          "meeting_type": null,
          "next_date": "2026-06-04",
          "start_time": "18:30",
          "end_time": "20:30",
          "recurrence": "",
          "contact_phone": "",
          "official_url": "",
          "verified": 0
        }
      ]
    },
    {
      "id": 24,
      "facility_name": "中央町社会教育館",
      "address": "東京都目黒区中央町２丁目４−１８ 中央町さくらプラザ地下1階",
      "prefecture": "東京都",
      "city": "目黒区",
      "lat": 35.6322333,
      "lng": 139.691941,
      "meetings": [
        {
          "meeting_name": "",
          "meeting_type": null,
          "next_date": "2026-06-04",
          "start_time": "19:00",
          "end_time": "20:30",
          "recurrence": "",
          "contact_phone": "",
          "official_url": "",
          "verified": 0
        }
      ]
    },
    {
      "id": 242,
      "facility_name": "日野市 中央公民館",
      "address": "東京都日野市日野本町７丁目５−２３",
      "prefecture": "東京都",
      "city": "日野市",
      "lat": 35.6794963,
      "lng": 139.4001215,
      "meetings": [
        {
          "meeting_name": "",
          "meeting_type": null,
          "next_date": "2026-06-04",
          "start_time": "19:00",
          "end_time": "21:00",
          "recurrence": "",
          "contact_phone": "",
          "official_url": "",
          "verified": 0
        }
      ]
    },
    {
      "id": 37,
      "facility_name": "用賀区民集会所",
      "address": "東京都世田谷区用賀４丁目１０−６",
      "prefecture": "東京都",
      "city": "世田谷区",
      "lat": 35.6271257,
      "lng": 139.6315835,
      "meetings": [
        {
          "meeting_name": "",
          "meeting_type": null,
          "next_date": "2026-06-04",
          "start_time": "18:30",
          "end_time": "20:30",
          "recurrence": "",
          "contact_phone": "",
          "official_url": "",
          "verified": 0
        }
      ]
    },
    {
      "id": 249,
      "facility_name": "青梅市福祉センター",
      "address": "東京都青梅市東青梅１丁目１７７−３",
      "prefecture": "東京都",
      "city": "青梅市",
      "lat": 35.7875224,
      "lng": 139.2741844,
      "meetings": [
        {
          "meeting_name": "",
          "meeting_type": null,
          "next_date": "2026-06-04",
          "start_time": "14:00",
          "end_time": "16:00",
          "recurrence": "",
          "contact_phone": "",
          "official_url": "",
          "verified": 0
        }
      ]
    },
    {
      "id": 98,
      "facility_name": "ひらつか市民活動センター",
      "address": "平塚市見附町1-8  崇善公民館2階",
      "prefecture": "神奈川県",
      "city": "平塚市",
      "lat": 35.3290681,
      "lng": 139.3440372,
      "meetings": [
        {
          "meeting_name": "",
          "meeting_type": null,
          "next_date": "2026-06-04",
          "start_time": "18:45",
          "end_time": "20:30",
          "recurrence": "毎月 第1木曜",
          "contact_phone": "",
          "official_url": "",
          "verified": 0
        }
      ]
    },
    {
      "id": 99,
      "facility_name": "ひらつか市民活動センター",
      "address": "平塚市見附町１−８ 崇善公民館2階",
      "prefecture": "神奈川県",
      "city": "平塚市",
      "lat": 35.3290681,
      "lng": 139.3440372,
      "meetings": [
        {
          "meeting_name": "",
          "meeting_type": null,
          "next_date": "2026-06-04",
          "start_time": "18:00",
          "end_time": "18:45",
          "recurrence": "",
          "contact_phone": "",
          "official_url": "",
          "verified": 0
        }
      ]
    },
    {
      "id": 103,
      "facility_name": "ひらつか市民活動センター",
      "address": "平塚市見附町1-8 崇善公民館2階",
      "prefecture": "神奈川県",
      "city": "平塚市",
      "lat": 35.3290681,
      "lng": 139.3440372,
      "meetings": [
        {
          "meeting_name": "",
          "meeting_type": null,
          "next_date": "2026-06-04",
          "start_time": "18:45",
          "end_time": "20:30",
          "recurrence": "毎月 第1木曜",
          "contact_phone": "",
          "official_url": "",
          "verified": 0
        }
      ]
    },
    {
      "id": 72,
      "facility_name": "横浜市二俣川地域ケアプラザ",
      "address": "神奈川県横浜市旭区二俣川２丁目５０−１４ コプレ二俣川 商業・業務棟 6F",
      "prefecture": "神奈川県",
      "city": "横浜市 旭区",
      "lat": 35.4631654,
      "lng": 139.5326339,
      "meetings": [
        {
          "meeting_name": "",
          "meeting_type": null,
          "next_date": "2026-06-04",
          "start_time": "18:30",
          "end_time": "20:00",
          "recurrence": "",
          "contact_phone": "",
          "official_url": "",
          "verified": 0
        }
      ]
    },
    {
      "id": 20,
      "facility_name": "カムカム新蒲田",
      "address": "東京都大田区新蒲田１丁目１８−１６",
      "prefecture": "東京都",
      "city": "大田区",
      "lat": 35.5574732,
      "lng": 139.7113395,
      "meetings": [
        {
          "meeting_name": "",
          "meeting_type": null,
          "next_date": "2026-06-05",
          "start_time": "18:30",
          "end_time": "20:30",
          "recurrence": "",
          "contact_phone": "",
          "official_url": "",
          "verified": 0
        }
      ]
    },
    {
      "id": 253,
      "facility_name": "多摩市立 関戸公民館",
      "address": "東京都多摩市関戸４丁目７２",
      "prefecture": "東京都",
      "city": "多摩市",
      "lat": 35.6495785,
      "lng": 139.4469976,
      "meetings": [
        {
          "meeting_name": "",
          "meeting_type": null,
          "next_date": "2026-06-05",
          "start_time": "19:00",
          "end_time": "21:00",
          "recurrence": "",
          "contact_phone": "",
          "official_url": "",
          "verified": 0
        }
      ]
    },
    {
      "id": 16,
      "facility_name": "竹の塚地域学習センター",
      "address": "東京都足立区竹の塚２丁目２５−１７",
      "prefecture": "東京都",
      "city": "足立区",
      "lat": 35.7925227,
      "lng": 139.7950596,
      "meetings": [
        {
          "meeting_name": "",
          "meeting_type": null,
          "next_date": "2026-06-05",
          "start_time": "18:30",
          "end_time": "20:30",
          "recurrence": "",
          "contact_phone": "",
          "official_url": "",
          "verified": 0
        }
      ]
    },
    {
      "id": 90,
      "facility_name": "川崎市中原市民館",
      "address": "神奈川県川崎市中原区新丸子東３丁目１１００−１２",
      "prefecture": "神奈川県",
      "city": "川崎市 中原区",
      "lat": 35.5748787,
      "lng": 139.6604338,
      "meetings": [
        {
          "meeting_name": "",
          "meeting_type": null,
          "next_date": "2026-06-05",
          "start_time": "19:00",
          "end_time": "20:45",
          "recurrence": "",
          "contact_phone": "",
          "official_url": "",
          "verified": 0
        }
      ]
    },
    {
      "id": 75,
      "facility_name": "横浜市栄区社会福祉協議会（社会福祉法人）",
      "address": "神奈川県横浜市栄区桂町２７９−２９ 福祉保健活動拠点",
      "prefecture": "神奈川県",
      "city": "横浜市 栄区",
      "lat": 35.3635657,
      "lng": 139.5537725,
      "meetings": [
        {
          "meeting_name": "",
          "meeting_type": null,
          "next_date": "2026-06-05",
          "start_time": "18:00",
          "end_time": "19:30",
          "recurrence": "",
          "contact_phone": "",
          "official_url": "",
          "verified": 0
        }
      ]
    },
    {
      "id": 116,
      "facility_name": "横須賀市 田浦コミュニティセンター",
      "address": "神奈川県横須賀市船越町６丁目７７ 横須賀市田浦行政センター",
      "prefecture": "神奈川県",
      "city": "横須賀市",
      "lat": 35.301248,
      "lng": 139.629022,
      "meetings": [
        {
          "meeting_name": "",
          "meeting_type": null,
          "next_date": "2026-06-05",
          "start_time": "19:00",
          "end_time": "20:15",
          "recurrence": "",
          "contact_phone": "",
          "official_url": "",
          "verified": 0
        }
      ]
    },
    {
      "id": 256,
      "facility_name": "船橋市 東部公民館",
      "address": "千葉県船橋市前原西２丁目２１−２１",
      "prefecture": "千葉県",
      "city": "船橋市",
      "lat": 35.6927812,
      "lng": 140.0227357,
      "meetings": [
        {
          "meeting_name": "",
          "meeting_type": null,
          "next_date": "2026-06-06",
          "start_time": "16:30",
          "end_time": "17:30",
          "recurrence": "毎月 第1土曜",
          "contact_phone": "",
          "official_url": "",
          "verified": 0
        }
      ]
    },
    {
      "id": 66,
      "facility_name": "浦和コミセン（浦和パルコ10F)",
      "address": "浦和コミセン（浦和",
      "prefecture": "埼玉県",
      "city": null,
      "lat": 35.858568,
      "lng": 139.6590796,
      "meetings": [
        {
          "meeting_name": "",
          "meeting_type": null,
          "next_date": "2026-06-06",
          "start_time": "19:00",
          "end_time": "20:30",
          "recurrence": "",
          "contact_phone": "",
          "official_url": "",
          "verified": 0
        }
      ]
    },
    {
      "id": 35,
      "facility_name": "ココネリ",
      "address": "東京都練馬区練馬１丁目１７−１",
      "prefecture": "東京都",
      "city": "練馬区",
      "lat": 35.7381707,
      "lng": 139.6533531,
      "meetings": [
        {
          "meeting_name": "",
          "meeting_type": null,
          "next_date": "2026-06-06",
          "start_time": "18:30",
          "end_time": "20:30",
          "recurrence": "",
          "contact_phone": "",
          "official_url": "",
          "verified": 0
        }
      ]
    },
    {
      "id": 25,
      "facility_name": "タワーホール船堀",
      "address": "東京都江戸川区船堀４丁目１−１ (地図)",
      "prefecture": "東京都",
      "city": "江戸川区",
      "lat": 35.6863964,
      "lng": 139.8650726,
      "meetings": [
        {
          "meeting_name": "",
          "meeting_type": null,
          "next_date": "2026-06-06",
          "start_time": "13:30",
          "end_time": "15:30",
          "recurrence": "",
          "contact_phone": "",
          "official_url": "",
          "verified": 0
        }
      ]
    },
    {
      "id": 36,
      "facility_name": "葛飾区 立石地区センター 別館",
      "address": "東京都葛飾区立石３丁目１２−１",
      "prefecture": "東京都",
      "city": "葛飾区",
      "lat": 35.7400582,
      "lng": 139.8436094,
      "meetings": [
        {
          "meeting_name": "",
          "meeting_type": null,
          "next_date": "2026-06-06",
          "start_time": "18:30",
          "end_time": "20:30",
          "recurrence": "",
          "contact_phone": "",
          "official_url": "",
          "verified": 0
        }
      ]
    },
    {
      "id": 29,
      "facility_name": "西久保１丁目２３−７",
      "address": "東京都武蔵野市西久保１丁目２３−７ 西久保コミュニティセンター",
      "prefecture": "東京都",
      "city": "武蔵野市",
      "lat": 35.706036,
      "lng": 139.5568566,
      "meetings": [
        {
          "meeting_name": "",
          "meeting_type": null,
          "next_date": "2026-06-06",
          "start_time": "10:00",
          "end_time": "12:00",
          "recurrence": "",
          "contact_phone": "",
          "official_url": "",
          "verified": 0
        }
      ]
    },
    {
      "id": 86,
      "facility_name": "宮前平２丁目２０−４",
      "address": "神奈川県川崎市宮前区宮前平２丁目２０−４ 川崎市宮前市民館",
      "prefecture": "神奈川県",
      "city": "川崎市 宮前区",
      "lat": 35.5894498,
      "lng": 139.5797253,
      "meetings": [
        {
          "meeting_name": "",
          "meeting_type": null,
          "next_date": "2026-06-06",
          "start_time": "19:00",
          "end_time": "20:45",
          "recurrence": "",
          "contact_phone": "",
          "official_url": "",
          "verified": 0
        }
      ]
    },
    {
      "id": 115,
      "facility_name": "横須賀市 逸見コミュニティセンター",
      "address": "神奈川県横須賀市東逸見町２丁目２９ 横須賀市逸見行政センター",
      "prefecture": "神奈川県",
      "city": "横須賀市",
      "lat": 35.28027180000001,
      "lng": 139.6528927,
      "meetings": [
        {
          "meeting_name": "",
          "meeting_type": null,
          "next_date": "2026-06-06",
          "start_time": "19:00",
          "end_time": "20:15",
          "recurrence": "",
          "contact_phone": "",
          "official_url": "",
          "verified": 0
        }
      ]
    },
    {
      "id": 123,
      "facility_name": "福祉会館",
      "address": "神奈川県逗子市桜山５丁目３２ 福祉会館",
      "prefecture": "神奈川県",
      "city": "逗子市",
      "lat": 35.2947084,
      "lng": 139.5937798,
      "meetings": [
        {
          "meeting_name": "",
          "meeting_type": null,
          "next_date": "2026-06-06",
          "start_time": "13:30",
          "end_time": "15:30",
          "recurrence": "",
          "contact_phone": "",
          "official_url": "",
          "verified": 0
        }
      ]
    },
    {
      "id": 101,
      "facility_name": "秦野市地域生活支援センター 〃ぱれっと・はだの〃 1階 地域交流室・秦野市本町2-7-25",
      "address": "秦野市地域生活支援センター 〃ぱれっと・はだの〃 1階 地域交流室・秦野市本町2-7-25",
      "prefecture": "神奈川県",
      "city": "秦野市",
      "lat": 35.3706685,
      "lng": 139.2289079,
      "meetings": [
        {
          "meeting_name": "",
          "meeting_type": null,
          "next_date": "2026-06-06",
          "start_time": "14:15",
          "end_time": "15:45",
          "recurrence": "",
          "contact_phone": "",
          "official_url": "",
          "verified": 0
        }
      ]
    },
    {
      "id": 171,
      "facility_name": "茅ヶ崎市民活動サポートセンター",
      "address": "神奈川県茅ヶ崎市茅ヶ崎３丁目２−７ 茅ヶ崎市民活動サポートセンター",
      "prefecture": "神奈川県",
      "city": "茅ヶ崎市",
      "lat": 35.3371205,
      "lng": 139.4038003,
      "meetings": [
        {
          "meeting_name": "",
          "meeting_type": null,
          "next_date": "2026-06-06",
          "start_time": "18:45",
          "end_time": "20:30",
          "recurrence": "",
          "contact_phone": "",
          "official_url": "",
          "verified": 0
        }
      ]
    },
    {
      "id": 12,
      "facility_name": "練馬区立練馬文化センター大ホール（こぶしホール）",
      "address": "東京都練馬区練馬１丁目１７−３７",
      "prefecture": "東京都",
      "city": "練馬区",
      "lat": 35.7394261,
      "lng": 139.6537642,
      "meetings": [
        {
          "meeting_name": "",
          "meeting_type": null,
          "next_date": "2026-06-07",
          "start_time": "10:00",
          "end_time": "15:30",
          "recurrence": "",
          "contact_phone": "",
          "official_url": "",
          "verified": 0
        }
      ]
    },
    {
      "id": 102,
      "facility_name": "waqbt-danshu@yahoo.co.jp 武田（オンライン担当）",
      "address": "waqbt-danshu@yahoo.co.jp 武田（オンライン担当）",
      "prefecture": "神奈川県",
      "city": null,
      "lat": 35.4913535,
      "lng": 139.284143,
      "meetings": [
        {
          "meeting_name": "",
          "meeting_type": null,
          "next_date": "2026-06-07",
          "start_time": "18:00",
          "end_time": "20:00",
          "recurrence": "",
          "contact_phone": "",
          "official_url": "",
          "verified": 0
        }
      ]
    },
    {
      "id": 33,
      "facility_name": "区民ひろば駒込",
      "address": "東京都豊島区駒込２丁目２−４",
      "prefecture": "東京都",
      "city": "豊島区",
      "lat": 35.7371329,
      "lng": 139.7477612,
      "meetings": [
        {
          "meeting_name": "",
          "meeting_type": null,
          "next_date": "2026-06-08",
          "start_time": "18:30",
          "end_time": "20:30",
          "recurrence": "",
          "contact_phone": "",
          "official_url": "",
          "verified": 0
        }
      ]
    },
    {
      "id": 240,
      "facility_name": "日商岩井国立マンション(1Ｆ集会場)",
      "address": "東京都国立市富士見台３丁目３２−４",
      "prefecture": "東京都",
      "city": "国立市",
      "lat": 35.686621,
      "lng": 139.4332965,
      "meetings": [
        {
          "meeting_name": "",
          "meeting_type": null,
          "next_date": "2026-06-08",
          "start_time": "19:00",
          "end_time": "21:00",
          "recurrence": "",
          "contact_phone": "",
          "official_url": "",
          "verified": 0
        }
      ]
    },
    {
      "id": 40,
      "facility_name": "杉並区立産業商工会館",
      "address": "杉並区立産業商工会館",
      "prefecture": "東京都",
      "city": "杉並区",
      "lat": 35.7017573,
      "lng": 139.6352933,
      "meetings": [
        {
          "meeting_name": "",
          "meeting_type": null,
          "next_date": "2026-06-08",
          "start_time": "19:00",
          "end_time": "20:30",
          "recurrence": "",
          "contact_phone": "",
          "official_url": "",
          "verified": 0
        }
      ]
    },
    {
      "id": 76,
      "facility_name": "横浜市もえぎ野地域ケアプラザ",
      "address": "神奈川県横浜市青葉区もえぎ野４−２",
      "prefecture": "神奈川県",
      "city": "横浜市 青葉区",
      "lat": 35.5449101,
      "lng": 139.5235562,
      "meetings": [
        {
          "meeting_name": "",
          "meeting_type": null,
          "next_date": "2026-06-08",
          "start_time": "18:30",
          "end_time": "20:00",
          "recurrence": "毎月 第1月曜",
          "contact_phone": "",
          "official_url": "",
          "verified": 0
        }
      ]
    },
    {
      "id": 250,
      "facility_name": "小平市 小川西町公民館",
      "address": "東京都小平市小川西町４丁目１０−１３",
      "prefecture": "東京都",
      "city": "小平市",
      "lat": 35.7351364,
      "lng": 139.4617911,
      "meetings": [
        {
          "meeting_name": "",
          "meeting_type": null,
          "next_date": "2026-06-09",
          "start_time": "19:00",
          "end_time": "21:00",
          "recurrence": "",
          "contact_phone": "",
          "official_url": "",
          "verified": 0
        }
      ]
    },
    {
      "id": 14,
      "facility_name": "神田駿河台２丁目５−２１",
      "address": "東京都千代田区神田駿河台２丁目５−２１ 障害者福祉センターえみふる",
      "prefecture": "東京都",
      "city": "千代田区",
      "lat": 35.7004181,
      "lng": 139.7607849,
      "meetings": [
        {
          "meeting_name": "",
          "meeting_type": null,
          "next_date": "2026-06-09",
          "start_time": "18:30",
          "end_time": "20:30",
          "recurrence": "",
          "contact_phone": "",
          "official_url": "",
          "verified": 0
        }
      ]
    },
    {
      "id": 93,
      "facility_name": "",
      "address": "神奈川県川崎市麻生区万福寺１丁目５−１ 川崎市麻生区役所",
      "prefecture": "神奈川県",
      "city": "川崎市 麻生区",
      "lat": 35.6037732,
      "lng": 139.5058391,
      "meetings": [
        {
          "meeting_name": "",
          "meeting_type": null,
          "next_date": "2026-06-09",
          "start_time": "19:00",
          "end_time": "20:45",
          "recurrence": "",
          "contact_phone": "",
          "official_url": "",
          "verified": 0
        }
      ]
    },
    {
      "id": 110,
      "facility_name": "横須賀市保健所",
      "address": "神奈川県横須賀市西逸見町１丁目１−３８−１１",
      "prefecture": "神奈川県",
      "city": "横須賀市",
      "lat": 35.2842547,
      "lng": 139.6521476,
      "meetings": [
        {
          "meeting_name": "",
          "meeting_type": null,
          "next_date": "2026-06-09",
          "start_time": "19:00",
          "end_time": "20:15",
          "recurrence": "",
          "contact_phone": "",
          "official_url": "",
          "verified": 0
        }
      ]
    },
    {
      "id": 145,
      "facility_name": "さいたま市生涯学習センター",
      "address": "さいたま市大宮区桜木町1-10-18  ｼｰﾉ大宮ｾﾝﾀｰﾌﾟﾗｻﾞ8F",
      "prefecture": "埼玉県",
      "city": "さいたま市 大宮区",
      "lat": 35.9043394,
      "lng": 139.6205317,
      "meetings": [
        {
          "meeting_name": "",
          "meeting_type": null,
          "next_date": "2026-06-10",
          "start_time": "19:00",
          "end_time": "20:30",
          "recurrence": "",
          "contact_phone": "",
          "official_url": "",
          "verified": 0
        }
      ]
    },
    {
      "id": 67,
      "facility_name": "シーノ大宮サウスウィング",
      "address": "埼玉県さいたま市大宮区桜木町１丁目１０−１７",
      "prefecture": "埼玉県",
      "city": "さいたま市 大宮区",
      "lat": 35.90489,
      "lng": 139.6189521,
      "meetings": [
        {
          "meeting_name": "",
          "meeting_type": null,
          "next_date": "2026-06-10",
          "start_time": "19:00",
          "end_time": "20:30",
          "recurrence": "",
          "contact_phone": "",
          "official_url": "",
          "verified": 0
        }
      ]
    },
    {
      "id": 31,
      "facility_name": "IKE･Biz としま産業振興プラザ",
      "address": "東京都豊島区西池袋２丁目３７−４ Ike･Biz としま産業振興プラザ",
      "prefecture": "東京都",
      "city": "豊島区",
      "lat": 35.7277303,
      "lng": 139.706734,
      "meetings": [
        {
          "meeting_name": "",
          "meeting_type": null,
          "next_date": "2026-06-10",
          "start_time": "13:00",
          "end_time": "15:00",
          "recurrence": "",
          "contact_phone": "",
          "official_url": "",
          "verified": 0
        }
      ]
    },
    {
      "id": 5,
      "facility_name": "江東区総合区民センター",
      "address": "東京都江東区大島４丁目５−１",
      "prefecture": "東京都",
      "city": "江東区",
      "lat": 35.68903580000001,
      "lng": 139.8269998,
      "meetings": [
        {
          "meeting_name": "",
          "meeting_type": null,
          "next_date": "2026-06-10",
          "start_time": "13:30",
          "end_time": "15:30",
          "recurrence": "",
          "contact_phone": "",
          "official_url": "",
          "verified": 0
        }
      ]
    },
    {
      "id": 247,
      "facility_name": "立川市社会福祉協議会",
      "address": "東京都立川市富士見町２丁目３６−４７",
      "prefecture": "東京都",
      "city": "立川市",
      "lat": 35.7012732,
      "lng": 139.4019165,
      "meetings": [
        {
          "meeting_name": "",
          "meeting_type": null,
          "next_date": "2026-06-10",
          "start_time": "13:00",
          "end_time": "16:00",
          "recurrence": "",
          "contact_phone": "",
          "official_url": "",
          "verified": 0
        }
      ]
    },
    {
      "id": 111,
      "facility_name": "久里浜医療センター1階病棟",
      "address": "久里浜医療センター1階病棟",
      "prefecture": "神奈川県",
      "city": null,
      "lat": 35.2138991,
      "lng": 139.7192223,
      "meetings": [
        {
          "meeting_name": "",
          "meeting_type": null,
          "next_date": "2026-06-10",
          "start_time": "19:00",
          "end_time": "20:00",
          "recurrence": "",
          "contact_phone": "",
          "official_url": "",
          "verified": 0
        }
      ]
    },
    {
      "id": 45,
      "facility_name": "中野区社会福祉会館 スマイルなかの",
      "address": "東京都中野区中野５丁目６８−７",
      "prefecture": "東京都",
      "city": "中野区",
      "lat": 35.7091842,
      "lng": 139.6652819,
      "meetings": [
        {
          "meeting_name": "",
          "meeting_type": null,
          "next_date": "2026-06-11",
          "start_time": "18:30",
          "end_time": "20:30",
          "recurrence": "",
          "contact_phone": "",
          "official_url": "",
          "verified": 0
        }
      ]
    },
    {
      "id": 246,
      "facility_name": "昭島市 昭和会館",
      "address": "東京都昭島市松原町１丁目２−２５",
      "prefecture": "東京都",
      "city": "昭島市",
      "lat": 35.7125926,
      "lng": 139.3577752,
      "meetings": [
        {
          "meeting_name": "",
          "meeting_type": null,
          "next_date": "2026-06-11",
          "start_time": "19:00",
          "end_time": "21:00",
          "recurrence": "",
          "contact_phone": "",
          "official_url": "",
          "verified": 0
        }
      ]
    },
    {
      "id": 108,
      "facility_name": "藤沢市湘南台文化センター",
      "address": "神奈川県藤沢市湘南台１丁目８",
      "prefecture": "神奈川県",
      "city": "藤沢市",
      "lat": 35.3947681,
      "lng": 139.4688468,
      "meetings": [
        {
          "meeting_name": "",
          "meeting_type": null,
          "next_date": "2026-06-11",
          "start_time": "19:00",
          "end_time": "21:00",
          "recurrence": "",
          "contact_phone": "",
          "official_url": "",
          "verified": 0
        }
      ]
    },
    {
      "id": 87,
      "facility_name": "高津区役所地域みまもり支援センター（福祉事務所・保健所支所）",
      "address": "神奈川県川崎市高津区下作延２丁目８−１",
      "prefecture": "神奈川県",
      "city": "川崎市 高津区",
      "lat": 35.5995612,
      "lng": 139.6080924,
      "meetings": [
        {
          "meeting_name": "",
          "meeting_type": null,
          "next_date": "2026-06-11",
          "start_time": "19:00",
          "end_time": "20:45",
          "recurrence": "",
          "contact_phone": "",
          "official_url": "",
          "verified": 0
        }
      ]
    },
    {
      "id": 19,
      "facility_name": "東日暮里ふれあい館",
      "address": "東京都荒川区東日暮里１丁目１７−１３ 都営東日暮里一丁目",
      "prefecture": "東京都",
      "city": "荒川区",
      "lat": 35.7298096,
      "lng": 139.7899732,
      "meetings": [
        {
          "meeting_name": "",
          "meeting_type": null,
          "next_date": "2026-06-12",
          "start_time": "19:00",
          "end_time": "20:30",
          "recurrence": "",
          "contact_phone": "",
          "official_url": "",
          "verified": 0
        }
      ]
    },
    {
      "id": 32,
      "facility_name": "練馬区立男女共同参画センターえーる",
      "address": "練馬区立男女共同参画センターえーる",
      "prefecture": "東京都",
      "city": "練馬区",
      "lat": 35.7451911,
      "lng": 139.6015934,
      "meetings": [
        {
          "meeting_name": "",
          "meeting_type": null,
          "next_date": "2026-06-12",
          "start_time": "18:30",
          "end_time": "20:30",
          "recurrence": "",
          "contact_phone": "",
          "official_url": "",
          "verified": 0
        }
      ]
    },
    {
      "id": 62,
      "facility_name": "さいたま市市民活動サポートセンター",
      "address": "埼玉県さいたま市浦和区東高砂町１１−１",
      "prefecture": "埼玉県",
      "city": "さいたま市 浦和区",
      "lat": 35.858568,
      "lng": 139.6590796,
      "meetings": [
        {
          "meeting_name": "",
          "meeting_type": null,
          "next_date": "2026-06-13",
          "start_time": "17:00",
          "end_time": "18:15",
          "recurrence": "",
          "contact_phone": "",
          "official_url": "",
          "verified": 0
        }
      ]
    },
    {
      "id": 60,
      "facility_name": "川越市",
      "address": "川越市",
      "prefecture": "埼玉県",
      "city": "川越市",
      "lat": 35.9251145,
      "lng": 139.4856927,
      "meetings": [
        {
          "meeting_name": "",
          "meeting_type": null,
          "next_date": "2026-06-13",
          "start_time": "19:00",
          "end_time": "21:00",
          "recurrence": "",
          "contact_phone": "",
          "official_url": "",
          "verified": 0
        }
      ]
    },
    {
      "id": 69,
      "facility_name": "浦和コミュニティセンター",
      "address": "埼玉県さいたま市東浦和区高砂１１−１",
      "prefecture": "埼玉県",
      "city": "さいたま市 東浦和区",
      "lat": 35.8574923,
      "lng": 139.6496729,
      "meetings": [
        {
          "meeting_name": "",
          "meeting_type": null,
          "next_date": "2026-06-13",
          "start_time": "19:00",
          "end_time": "20:30",
          "recurrence": "",
          "contact_phone": "",
          "official_url": "",
          "verified": 0
        }
      ]
    },
    {
      "id": 143,
      "facility_name": "浦和コミュニティセンター",
      "address": "さいたま市浦和区東高砂町11-1 　浦和",
      "prefecture": "埼玉県",
      "city": "さいたま市 浦和区",
      "lat": 35.858568,
      "lng": 139.6590796,
      "meetings": [
        {
          "meeting_name": "",
          "meeting_type": null,
          "next_date": "2026-06-13",
          "start_time": "19:00",
          "end_time": "20:30",
          "recurrence": "",
          "contact_phone": "",
          "official_url": "",
          "verified": 0
        }
      ]
    },
    {
      "id": 18,
      "facility_name": "協働ステーション中央",
      "address": "協働ステーション中央",
      "prefecture": "東京都",
      "city": null,
      "lat": 35.6911512,
      "lng": 139.7770967,
      "meetings": [
        {
          "meeting_name": "",
          "meeting_type": null,
          "next_date": "2026-06-13",
          "start_time": "18:30",
          "end_time": "20:00",
          "recurrence": "",
          "contact_phone": "",
          "official_url": "",
          "verified": 0
        }
      ]
    },
    {
      "id": 11,
      "facility_name": "富岡区民館",
      "address": "東京都江東区富岡１丁目１６−１２",
      "prefecture": "東京都",
      "city": "江東区",
      "lat": 35.6717671,
      "lng": 139.7985648,
      "meetings": [
        {
          "meeting_name": "",
          "meeting_type": null,
          "next_date": "2026-06-13",
          "start_time": "18:30",
          "end_time": "20:45",
          "recurrence": "",
          "contact_phone": "",
          "official_url": "",
          "verified": 0
        }
      ]
    },
    {
      "id": 71,
      "facility_name": "かながわ県民センター",
      "address": "神奈川県横浜市神奈川区鶴屋町２丁目２４−２",
      "prefecture": "神奈川県",
      "city": "横浜市 神奈川区",
      "lat": 35.4684095,
      "lng": 139.6207449,
      "meetings": [
        {
          "meeting_name": "",
          "meeting_type": null,
          "next_date": "2026-06-13",
          "start_time": "18:00",
          "end_time": "20:30",
          "recurrence": "",
          "contact_phone": "",
          "official_url": "",
          "verified": 0
        }
      ]
    },
    {
      "id": 172,
      "facility_name": "茅ヶ崎市 男女共同参画推進センター「いこりあ」",
      "address": "神奈川県茅ヶ崎市新栄町１２−１２ 茅ヶ崎トラスト",
      "prefecture": "神奈川県",
      "city": "茅ヶ崎市",
      "lat": 35.332342,
      "lng": 139.4046304,
      "meetings": [
        {
          "meeting_name": "",
          "meeting_type": null,
          "next_date": "2026-06-13",
          "start_time": "13:30",
          "end_time": "15:30",
          "recurrence": "",
          "contact_phone": "",
          "official_url": "",
          "verified": 0
        }
      ]
    },
    {
      "id": 167,
      "facility_name": "秩父勤労者福祉センター",
      "address": "秩父市上宮地町27-5",
      "prefecture": "埼玉県",
      "city": "秩父市",
      "lat": 36.0026892,
      "lng": 139.0906726,
      "meetings": [
        {
          "meeting_name": "",
          "meeting_type": null,
          "next_date": "2026-06-14",
          "start_time": "13:00",
          "end_time": "15:00",
          "recurrence": "",
          "contact_phone": "",
          "official_url": "",
          "verified": 0
        }
      ]
    },
    {
      "id": 70,
      "facility_name": "秩父市勤労者福祉センター",
      "address": "秩父市上宮地町27-5",
      "prefecture": "埼玉県",
      "city": "秩父市",
      "lat": 36.0026892,
      "lng": 139.0906726,
      "meetings": [
        {
          "meeting_name": "",
          "meeting_type": null,
          "next_date": "2026-06-14",
          "start_time": "13:00",
          "end_time": "15:00",
          "recurrence": "",
          "contact_phone": "",
          "official_url": "",
          "verified": 0
        }
      ]
    },
    {
      "id": 245,
      "facility_name": "くにたち福祉会館",
      "address": "東京都国立市富士見台２丁目３８−５",
      "prefecture": "東京都",
      "city": "国立市",
      "lat": 35.6874205,
      "lng": 139.4445749,
      "meetings": [
        {
          "meeting_name": "",
          "meeting_type": null,
          "next_date": "2026-06-14",
          "start_time": "14:00",
          "end_time": "16:00",
          "recurrence": "",
          "contact_phone": "",
          "official_url": "",
          "verified": 0
        }
      ]
    },
    {
      "id": 9,
      "facility_name": "経堂地区会館",
      "address": "東京都世田谷区経堂３丁目３７−１３",
      "prefecture": "東京都",
      "city": "世田谷区",
      "lat": 35.651765,
      "lng": 139.632168,
      "meetings": [
        {
          "meeting_name": "",
          "meeting_type": null,
          "next_date": "2026-06-14",
          "start_time": "14:00",
          "end_time": "16:00",
          "recurrence": "",
          "contact_phone": "",
          "official_url": "",
          "verified": 0
        }
      ]
    },
    {
      "id": 38,
      "facility_name": "戸塚地域センター",
      "address": "東京都新宿区高田馬場２丁目１８−１ 新宿区戸塚特別出張所等区民施設",
      "prefecture": "東京都",
      "city": "新宿区",
      "lat": 35.7144575,
      "lng": 139.7051045,
      "meetings": [
        {
          "meeting_name": "",
          "meeting_type": null,
          "next_date": "2026-06-15",
          "start_time": "18:00",
          "end_time": "19:30",
          "recurrence": "",
          "contact_phone": "",
          "official_url": "",
          "verified": 0
        }
      ]
    },
    {
      "id": 61,
      "facility_name": "富士見市",
      "address": "富士見市",
      "prefecture": "埼玉県",
      "city": "富士見市",
      "lat": 35.8565545,
      "lng": 139.5490731,
      "meetings": [
        {
          "meeting_name": "",
          "meeting_type": null,
          "next_date": "2026-06-17",
          "start_time": "19:00",
          "end_time": "21:00",
          "recurrence": "",
          "contact_phone": "",
          "official_url": "",
          "verified": 0
        }
      ]
    },
    {
      "id": 248,
      "facility_name": "国分寺市 本多公民館",
      "address": "東京都国分寺市本多１丁目７−１",
      "prefecture": "東京都",
      "city": "国分寺市",
      "lat": 35.7053251,
      "lng": 139.4825249,
      "meetings": [
        {
          "meeting_name": "",
          "meeting_type": null,
          "next_date": "2026-06-17",
          "start_time": "19:00",
          "end_time": "21:00",
          "recurrence": "",
          "contact_phone": "",
          "official_url": "",
          "verified": 0
        }
      ]
    },
    {
      "id": 43,
      "facility_name": "世田谷区 砧総合支所",
      "address": "東京都世田谷区成城６丁目２−１",
      "prefecture": "東京都",
      "city": "世田谷区",
      "lat": 35.6412777,
      "lng": 139.600756,
      "meetings": [
        {
          "meeting_name": "",
          "meeting_type": null,
          "next_date": "2026-06-18",
          "start_time": "18:30",
          "end_time": "20:30",
          "recurrence": "",
          "contact_phone": "",
          "official_url": "",
          "verified": 0
        }
      ]
    },
    {
      "id": 241,
      "facility_name": "立川市 柴崎学習館",
      "address": "東京都立川市柴崎町２丁目１５−８",
      "prefecture": "東京都",
      "city": "立川市",
      "lat": 35.694704,
      "lng": 139.4080884,
      "meetings": [
        {
          "meeting_name": "",
          "meeting_type": null,
          "next_date": "2026-06-18",
          "start_time": "19:00",
          "end_time": "21:00",
          "recurrence": "",
          "contact_phone": "",
          "official_url": "",
          "verified": 0
        }
      ]
    },
    {
      "id": 85,
      "facility_name": "",
      "address": "神奈川県川崎市幸区戸手本町１丁目１１−２ 川崎市幸市民館",
      "prefecture": "神奈川県",
      "city": "川崎市 幸区",
      "lat": 35.5443883,
      "lng": 139.6875789,
      "meetings": [
        {
          "meeting_name": "",
          "meeting_type": null,
          "next_date": "2026-06-18",
          "start_time": "19:00",
          "end_time": "20:45",
          "recurrence": "",
          "contact_phone": "",
          "official_url": "",
          "verified": 0
        }
      ]
    },
    {
      "id": 113,
      "facility_name": "久里浜コミュニティセンター",
      "address": "神奈川県横須賀市久里浜６丁目１４−２ 横須賀市久里浜行政センター 2階",
      "prefecture": "神奈川県",
      "city": "横須賀市",
      "lat": 35.2266507,
      "lng": 139.7060164,
      "meetings": [
        {
          "meeting_name": "",
          "meeting_type": null,
          "next_date": "2026-06-19",
          "start_time": "19:00",
          "end_time": "20:15",
          "recurrence": "",
          "contact_phone": "",
          "official_url": "",
          "verified": 0
        }
      ]
    },
    {
      "id": 120,
      "facility_name": "鎌倉市福祉センター",
      "address": "神奈川県鎌倉市御成町２０−２１",
      "prefecture": "神奈川県",
      "city": "鎌倉市",
      "lat": 35.3170594,
      "lng": 139.5462249,
      "meetings": [
        {
          "meeting_name": "",
          "meeting_type": null,
          "next_date": "2026-06-19",
          "start_time": "19:00",
          "end_time": "19:45",
          "recurrence": "",
          "contact_phone": "",
          "official_url": "",
          "verified": 0
        }
      ]
    },
    {
      "id": 30,
      "facility_name": "",
      "address": "東京都江戸川区船堀４丁目１−１",
      "prefecture": "東京都",
      "city": "江戸川区",
      "lat": 35.6843894,
      "lng": 139.8649112,
      "meetings": [
        {
          "meeting_name": "",
          "meeting_type": null,
          "next_date": "2026-06-20",
          "start_time": "18:30",
          "end_time": "20:30",
          "recurrence": "",
          "contact_phone": "",
          "official_url": "",
          "verified": 0
        }
      ]
    },
    {
      "id": 251,
      "facility_name": "上野原市文化ホール(もみじホール),",
      "address": "山梨県上野原市上野原３８３２",
      "prefecture": "東京都",
      "city": "山梨県上野原市",
      "lat": 35.6300547,
      "lng": 139.1081617,
      "meetings": [
        {
          "meeting_name": "",
          "meeting_type": null,
          "next_date": "2026-06-20",
          "start_time": "13:00",
          "end_time": "15:00",
          "recurrence": "",
          "contact_phone": "",
          "official_url": "",
          "verified": 0
        }
      ]
    },
    {
      "id": 7,
      "facility_name": "北町地域集会所",
      "address": "東京都練馬区北町８丁目２８−１０ 練馬区立北町地域集会所",
      "prefecture": "東京都",
      "city": "練馬区",
      "lat": 35.7677151,
      "lng": 139.6496689,
      "meetings": [
        {
          "meeting_name": "",
          "meeting_type": null,
          "next_date": "2026-06-20",
          "start_time": "18:30",
          "end_time": "20:30",
          "recurrence": "",
          "contact_phone": "",
          "official_url": "",
          "verified": 0
        }
      ]
    },
    {
      "id": 15,
      "facility_name": "西久保コミュニティーセンター",
      "address": "東京都武蔵野市西久保１丁目２３−７ 西久保コミュニティセンター",
      "prefecture": "東京都",
      "city": "武蔵野市",
      "lat": 35.706036,
      "lng": 139.5568566,
      "meetings": [
        {
          "meeting_name": "",
          "meeting_type": null,
          "next_date": "2026-06-20",
          "start_time": "14:00",
          "end_time": "16:00",
          "recurrence": "",
          "contact_phone": "",
          "official_url": "",
          "verified": 0
        }
      ]
    },
    {
      "id": 100,
      "facility_name": "いせはら市民活動サポートセンター",
      "address": "伊勢原市田中２９７",
      "prefecture": "神奈川県",
      "city": "伊勢原市",
      "lat": 35.4021262,
      "lng": 139.3148034,
      "meetings": [
        {
          "meeting_name": "",
          "meeting_type": null,
          "next_date": "2026-06-20",
          "start_time": "12:45",
          "end_time": "13:30",
          "recurrence": "",
          "contact_phone": "",
          "official_url": "",
          "verified": 0
        }
      ]
    },
    {
      "id": 104,
      "facility_name": "いせはら市民活動サポートセンター・伊勢原市田中297",
      "address": "いせはら市民活動サポートセンター・伊勢原市田中297",
      "prefecture": "神奈川県",
      "city": "いせはら市",
      "lat": 35.4021069,
      "lng": 139.3147863,
      "meetings": [
        {
          "meeting_name": "",
          "meeting_type": null,
          "next_date": "2026-06-20",
          "start_time": "13:30",
          "end_time": "15:30",
          "recurrence": "",
          "contact_phone": "",
          "official_url": "",
          "verified": 0
        }
      ]
    },
    {
      "id": 89,
      "facility_name": "川崎市民プラザ",
      "address": "神奈川県川崎市高津区新作１丁目１９−１",
      "prefecture": "神奈川県",
      "city": "川崎市 高津区",
      "lat": 35.5849099,
      "lng": 139.6105758,
      "meetings": [
        {
          "meeting_name": "",
          "meeting_type": null,
          "next_date": "2026-06-20",
          "start_time": "13:00",
          "end_time": "16:00",
          "recurrence": "",
          "contact_phone": "",
          "official_url": "",
          "verified": 0
        }
      ]
    },
    {
      "id": 96,
      "facility_name": "高津市民館",
      "address": "神奈川県川崎市高津区溝口１丁目４−１ ノクティ２ １１Ｆ・１２Ｆ",
      "prefecture": "神奈川県",
      "city": "川崎市 高津区",
      "lat": 35.5992207,
      "lng": 139.6127035,
      "meetings": [
        {
          "meeting_name": "",
          "meeting_type": null,
          "next_date": "2026-06-20",
          "start_time": "19:00",
          "end_time": "20:45",
          "recurrence": "",
          "contact_phone": "",
          "official_url": "",
          "verified": 0
        }
      ]
    },
    {
      "id": 17,
      "facility_name": "大久保スポーツプラザ",
      "address": "東京都新宿区大久保３丁目７−４２ 大久保スポーツプラザ",
      "prefecture": "東京都",
      "city": "新宿区",
      "lat": 35.7092235,
      "lng": 139.7032349,
      "meetings": [
        {
          "meeting_name": "",
          "meeting_type": null,
          "next_date": "2026-06-21",
          "start_time": "10:00",
          "end_time": "11:30",
          "recurrence": "",
          "contact_phone": "",
          "official_url": "",
          "verified": 0
        }
      ]
    },
    {
      "id": 78,
      "facility_name": "貸し会議室 航空会館ビジネスフォーラム",
      "address": "東京都港区新橋１丁目１８−１",
      "prefecture": "神奈川県",
      "city": "東京都港区",
      "lat": 35.66891409999999,
      "lng": 139.7554639,
      "meetings": [
        {
          "meeting_name": "",
          "meeting_type": null,
          "next_date": "2026-06-21",
          "start_time": "",
          "end_time": "",
          "recurrence": "",
          "contact_phone": "",
          "official_url": "",
          "verified": 0
        }
      ]
    },
    {
      "id": 95,
      "facility_name": "宮前区保健福祉センター",
      "address": "神奈川県川崎市宮前区宮前平２丁目２０−５",
      "prefecture": "神奈川県",
      "city": "川崎市 宮前区",
      "lat": 35.5892143,
      "lng": 139.5786927,
      "meetings": [
        {
          "meeting_name": "",
          "meeting_type": null,
          "next_date": "2026-06-22",
          "start_time": "19:00",
          "end_time": "20:45",
          "recurrence": "",
          "contact_phone": "",
          "official_url": "",
          "verified": 0
        }
      ]
    },
    {
      "id": 22,
      "facility_name": "中央区立十思スクエア 東京都中央区日本橋小伝馬町５−１ 中央区立十思スクエア等複合施設",
      "address": "中央区立十思スクエア 東京都中央区日本橋小伝馬町５−１ 中央区立十思スクエア等複合施設",
      "prefecture": "東京都",
      "city": "中央区",
      "lat": 35.6906221,
      "lng": 139.7771028,
      "meetings": [
        {
          "meeting_name": "",
          "meeting_type": null,
          "next_date": "2026-06-24",
          "start_time": "18:30",
          "end_time": "20:30",
          "recurrence": "",
          "contact_phone": "",
          "official_url": "",
          "verified": 0
        }
      ]
    },
    {
      "id": 44,
      "facility_name": "豊洲文化センター",
      "address": "東京都江東区豊洲２丁目２−１８",
      "prefecture": "東京都",
      "city": "江東区",
      "lat": 35.6542788,
      "lng": 139.7952583,
      "meetings": [
        {
          "meeting_name": "",
          "meeting_type": null,
          "next_date": "2026-06-24",
          "start_time": "19:30",
          "end_time": "21:30",
          "recurrence": "",
          "contact_phone": "",
          "official_url": "",
          "verified": 0
        }
      ]
    },
    {
      "id": 23,
      "facility_name": "両国駅前会館",
      "address": "東京都墨田区両国２丁目２０−１２ ライオンズステーションプラザ両国 １０１",
      "prefecture": "東京都",
      "city": "墨田区",
      "lat": 35.6953018,
      "lng": 139.7926487,
      "meetings": [
        {
          "meeting_name": "",
          "meeting_type": null,
          "next_date": "2026-06-25",
          "start_time": "18:30",
          "end_time": "20:30",
          "recurrence": "",
          "contact_phone": "",
          "official_url": "",
          "verified": 0
        }
      ]
    },
    {
      "id": 244,
      "facility_name": "八王子市生涯学習センター（クリエイトホール）",
      "address": "東京都八王子市東町５−６",
      "prefecture": "東京都",
      "city": "八王子市",
      "lat": 35.658532,
      "lng": 139.3399542,
      "meetings": [
        {
          "meeting_name": "",
          "meeting_type": null,
          "next_date": "2026-06-25",
          "start_time": "19:00",
          "end_time": "21:00",
          "recurrence": "",
          "contact_phone": "",
          "official_url": "",
          "verified": 0
        }
      ]
    },
    {
      "id": 10,
      "facility_name": "太子堂区民センター",
      "address": "東京都世田谷区太子堂１丁目１４−２０ 世田谷区立太子堂区民センター",
      "prefecture": "東京都",
      "city": "世田谷区",
      "lat": 35.6428861,
      "lng": 139.6736244,
      "meetings": [
        {
          "meeting_name": "",
          "meeting_type": null,
          "next_date": "2026-06-25",
          "start_time": "18:30",
          "end_time": "20:30",
          "recurrence": "",
          "contact_phone": "",
          "official_url": "",
          "verified": 0
        }
      ]
    },
    {
      "id": 84,
      "facility_name": "福祉パルあさお",
      "address": "神奈川県川崎市麻生区万福寺１丁目２−２ 新百合21",
      "prefecture": "神奈川県",
      "city": "川崎市 麻生区",
      "lat": 35.60290579999999,
      "lng": 139.5058065,
      "meetings": [
        {
          "meeting_name": "",
          "meeting_type": null,
          "next_date": "2026-06-25",
          "start_time": "19:00",
          "end_time": "20:45",
          "recurrence": "",
          "contact_phone": "",
          "official_url": "",
          "verified": 0
        }
      ]
    },
    {
      "id": 252,
      "facility_name": "福生市民会館",
      "address": "東京都福生市福生２４５５−２４５５",
      "prefecture": "東京都",
      "city": "福生市",
      "lat": 35.7339173,
      "lng": 139.3378396,
      "meetings": [
        {
          "meeting_name": "",
          "meeting_type": null,
          "next_date": "2026-06-26",
          "start_time": "14:00",
          "end_time": "16:00",
          "recurrence": "",
          "contact_phone": "",
          "official_url": "",
          "verified": 0
        }
      ]
    },
    {
      "id": 88,
      "facility_name": "多摩市民館",
      "address": "神奈川県川崎市多摩区登戸１７７５−１",
      "prefecture": "神奈川県",
      "city": "川崎市 多摩区",
      "lat": 35.6194623,
      "lng": 139.562151,
      "meetings": [
        {
          "meeting_name": "",
          "meeting_type": null,
          "next_date": "2026-06-26",
          "start_time": "19:00",
          "end_time": "20:45",
          "recurrence": "",
          "contact_phone": "",
          "official_url": "",
          "verified": 0
        }
      ]
    },
    {
      "id": 122,
      "facility_name": "葉山町福祉文化会館",
      "address": "神奈川県三浦郡葉山町堀内２２２０ 葉山町福祉文化会館",
      "prefecture": "神奈川県",
      "city": "三浦郡葉山町",
      "lat": 35.273019,
      "lng": 139.587036,
      "meetings": [
        {
          "meeting_name": "",
          "meeting_type": null,
          "next_date": "2026-06-26",
          "start_time": "19:00",
          "end_time": "20:30",
          "recurrence": "",
          "contact_phone": "",
          "official_url": "",
          "verified": 0
        }
      ]
    },
    {
      "id": 259,
      "facility_name": "総合福祉会館",
      "address": "千葉県野田市鶴奉5ー1",
      "prefecture": "千葉県",
      "city": "野田市",
      "lat": 35.9566619,
      "lng": 139.8731574,
      "meetings": [
        {
          "meeting_name": "",
          "meeting_type": null,
          "next_date": "2026-06-27",
          "start_time": "18:30",
          "end_time": "20:30",
          "recurrence": "",
          "contact_phone": "",
          "official_url": "",
          "verified": 0
        }
      ]
    },
    {
      "id": 4,
      "facility_name": "根岸社会教育館",
      "address": "東京都台東区根岸５丁目１８−１３",
      "prefecture": "東京都",
      "city": "台東区",
      "lat": 35.7290503,
      "lng": 139.7904743,
      "meetings": [
        {
          "meeting_name": "",
          "meeting_type": null,
          "next_date": "2026-06-27",
          "start_time": "18:30",
          "end_time": "20:30",
          "recurrence": "",
          "contact_phone": "",
          "official_url": "",
          "verified": 0
        }
      ]
    },
    {
      "id": 94,
      "facility_name": "川崎市中原市民館",
      "address": "神奈川県川崎市中原区新丸子東３丁目１１００−１２ パークシティ武蔵小杉ミッドスカイ",
      "prefecture": "神奈川県",
      "city": "川崎市 中原区",
      "lat": 35.5748787,
      "lng": 139.6604338,
      "meetings": [
        {
          "meeting_name": "",
          "meeting_type": null,
          "next_date": "2026-06-27",
          "start_time": "19:00",
          "end_time": "20:45",
          "recurrence": "",
          "contact_phone": "",
          "official_url": "",
          "verified": 0
        }
      ]
    },
    {
      "id": 21,
      "facility_name": "京王断酒会（ＮＰＯ法人）",
      "address": "東京都調布市布田１丁目２９−４",
      "prefecture": "東京都",
      "city": "調布市",
      "lat": 35.6533767,
      "lng": 139.5453749,
      "meetings": [
        {
          "meeting_name": "",
          "meeting_type": null,
          "next_date": "2026-06-28",
          "start_time": "13:00",
          "end_time": "15:00",
          "recurrence": "",
          "contact_phone": "",
          "official_url": "",
          "verified": 0
        }
      ]
    },
    {
      "id": 1,
      "facility_name": "サンパール荒川",
      "address": "東京都荒川区荒川１丁目１−１ 荒川区民会館（サンパール荒川）",
      "prefecture": "東京都",
      "city": "荒川区",
      "lat": 35.7352073,
      "lng": 139.78517,
      "meetings": [
        {
          "meeting_name": "",
          "meeting_type": null,
          "next_date": "2026-06-29",
          "start_time": "18:30",
          "end_time": "20:30",
          "recurrence": "",
          "contact_phone": "",
          "official_url": "",
          "verified": 0
        }
      ]
    },
    {
      "id": 114,
      "facility_name": "いきいきセンター金沢",
      "address": "神奈川県横浜市金沢区泥亀１丁目２１−５",
      "prefecture": "神奈川県",
      "city": "横浜市 金沢区",
      "lat": 35.3391896,
      "lng": 139.6217448,
      "meetings": [
        {
          "meeting_name": "",
          "meeting_type": null,
          "next_date": "2026-07-01",
          "start_time": "19:00",
          "end_time": "20:15",
          "recurrence": "",
          "contact_phone": "",
          "official_url": "",
          "verified": 0
        }
      ]
    },
    {
      "id": 257,
      "facility_name": "市原市八幡総合市民センター やわたパレット",
      "address": "千葉県市原市八幡１０５０−３",
      "prefecture": "千葉県",
      "city": "市原市",
      "lat": 35.5373022,
      "lng": 140.1154897,
      "meetings": [
        {
          "meeting_name": "",
          "meeting_type": null,
          "next_date": "2026-07-05",
          "start_time": "09:50",
          "end_time": "11:50",
          "recurrence": "毎月 第1日曜",
          "contact_phone": "",
          "official_url": "",
          "verified": 0
        }
      ]
    },
    {
      "id": 121,
      "facility_name": "神奈川県立精神医療センター",
      "address": "神奈川県横浜市港南区芹が谷２丁目５−１",
      "prefecture": "神奈川県",
      "city": "横浜市 港南区",
      "lat": 35.4206328,
      "lng": 139.5734413,
      "meetings": [
        {
          "meeting_name": "",
          "meeting_type": null,
          "next_date": "2026-07-05",
          "start_time": "14:00",
          "end_time": "15:00",
          "recurrence": "",
          "contact_phone": "",
          "official_url": "",
          "verified": 0
        }
      ]
    },
    {
      "id": 109,
      "facility_name": "久里浜医療センター2階病棟",
      "address": "久里浜医療センター2階病棟",
      "prefecture": "神奈川県",
      "city": null,
      "lat": 35.2138991,
      "lng": 139.7192223,
      "meetings": [
        {
          "meeting_name": "",
          "meeting_type": null,
          "next_date": "2026-07-06",
          "start_time": "19:00",
          "end_time": "20:00",
          "recurrence": "",
          "contact_phone": "",
          "official_url": "",
          "verified": 0
        }
      ]
    },
    {
      "id": 119,
      "facility_name": "葉山町 福祉文化会館",
      "address": "神奈川県三浦郡葉山町堀内２２２０ 葉山町福祉文化会館",
      "prefecture": "神奈川県",
      "city": "三浦郡葉山町",
      "lat": 35.273019,
      "lng": 139.587036,
      "meetings": [
        {
          "meeting_name": "",
          "meeting_type": null,
          "next_date": "2026-07-06",
          "start_time": "19:00",
          "end_time": "20:00",
          "recurrence": "",
          "contact_phone": "",
          "official_url": "",
          "verified": 0
        }
      ]
    },
    {
      "id": 105,
      "facility_name": "六会市民センター",
      "address": "神奈川県藤沢市亀井野４丁目８−１",
      "prefecture": "神奈川県",
      "city": "藤沢市",
      "lat": 35.3835222,
      "lng": 139.4737365,
      "meetings": [
        {
          "meeting_name": "",
          "meeting_type": null,
          "next_date": "2026-07-09",
          "start_time": "19:00",
          "end_time": "21:00",
          "recurrence": "YEARLY",
          "contact_phone": "",
          "official_url": "",
          "verified": 0
        }
      ]
    },
    {
      "id": 83,
      "facility_name": "横浜市健康福祉総合センター",
      "address": "神奈川県横浜市中区桜木町１丁目１",
      "prefecture": "神奈川県",
      "city": "横浜市 中区",
      "lat": 35.4497142,
      "lng": 139.6310632,
      "meetings": [
        {
          "meeting_name": "",
          "meeting_type": null,
          "next_date": "2026-07-16",
          "start_time": "10:00",
          "end_time": "12:00",
          "recurrence": "",
          "contact_phone": "",
          "official_url": "",
          "verified": 0
        }
      ]
    },
    {
      "id": 79,
      "facility_name": "横浜市中山地域ケアプラザ",
      "address": "神奈川県横浜市緑区中山２丁目１−１",
      "prefecture": "神奈川県",
      "city": "横浜市 緑区",
      "lat": 35.5163989,
      "lng": 139.5437519,
      "meetings": [
        {
          "meeting_name": "",
          "meeting_type": null,
          "next_date": "2026-07-17",
          "start_time": "18:45",
          "end_time": "20:15",
          "recurrence": "",
          "contact_phone": "",
          "official_url": "",
          "verified": 0
        }
      ]
    },
    {
      "id": 127,
      "facility_name": "地域医療センター",
      "address": "神奈川県茅ヶ崎市茅ヶ崎３丁目４−２３ 地域医療センタ ２階",
      "prefecture": "神奈川県",
      "city": "茅ヶ崎市",
      "lat": 35.3371195,
      "lng": 139.4027926,
      "meetings": [
        {
          "meeting_name": "",
          "meeting_type": null,
          "next_date": "2026-07-23",
          "start_time": "18:45",
          "end_time": "20:45",
          "recurrence": "",
          "contact_phone": "",
          "official_url": "",
          "verified": 0
        }
      ]
    },
    {
      "id": 91,
      "facility_name": "エポックなかはら (川崎市総合福祉センター)",
      "address": "神奈川県川崎市中原区上小田中６丁目２２−５ 川崎市総合福祉センター ５階",
      "prefecture": "神奈川県",
      "city": "川崎市 中原区",
      "lat": 35.5811731,
      "lng": 139.6424664,
      "meetings": [
        {
          "meeting_name": "",
          "meeting_type": null,
          "next_date": "2026-07-25",
          "start_time": "09:30",
          "end_time": "16:30",
          "recurrence": "",
          "contact_phone": "",
          "official_url": "",
          "verified": 0
        }
      ]
    },
    {
      "id": 77,
      "facility_name": "横浜市浦舟地域ケアプラザ",
      "address": "神奈川県横浜市南区浦舟町３丁目４６",
      "prefecture": "神奈川県",
      "city": "横浜市 南区",
      "lat": 35.4340411,
      "lng": 139.6258778,
      "meetings": [
        {
          "meeting_name": "",
          "meeting_type": null,
          "next_date": "2026-07-29",
          "start_time": "18:30",
          "end_time": "20:00",
          "recurrence": "",
          "contact_phone": "",
          "official_url": "",
          "verified": 0
        }
      ]
    },
    {
      "id": 125,
      "facility_name": "大和市文化創造拠点シリウス",
      "address": "神奈川県大和市大和南１丁目８−１",
      "prefecture": "神奈川県",
      "city": "大和市",
      "lat": 35.4691622,
      "lng": 139.4649054,
      "meetings": [
        {
          "meeting_name": "",
          "meeting_type": null,
          "next_date": "2026-07-31",
          "start_time": "19:00",
          "end_time": "20:30",
          "recurrence": "",
          "contact_phone": "",
          "official_url": "",
          "verified": 0
        }
      ]
    },
    {
      "id": 254,
      "facility_name": "全日警ホール",
      "address": "千葉県市川市八幡４丁目２−１",
      "prefecture": "千葉県",
      "city": "市川市",
      "lat": 35.7241234,
      "lng": 139.9307643,
      "meetings": [
        {
          "meeting_name": "",
          "meeting_type": null,
          "next_date": "2026-08-02",
          "start_time": "10:00",
          "end_time": "15:30",
          "recurrence": "",
          "contact_phone": "",
          "official_url": "",
          "verified": 0
        }
      ]
    },
    {
      "id": 97,
      "facility_name": "川崎市 川崎区役所",
      "address": "神奈川県川崎市川崎区東田町８",
      "prefecture": "神奈川県",
      "city": "川崎市 川崎区",
      "lat": 35.5296785,
      "lng": 139.7040441,
      "meetings": [
        {
          "meeting_name": "",
          "meeting_type": null,
          "next_date": "2026-08-05",
          "start_time": "18:30",
          "end_time": "20:30",
          "recurrence": "",
          "contact_phone": "",
          "official_url": "",
          "verified": 0
        }
      ]
    },
    {
      "id": 107,
      "facility_name": "藤沢市保健所・南保健センター",
      "address": "神奈川県藤沢市鵠沼２１３１−１ 藤沢保健所",
      "prefecture": "神奈川県",
      "city": "藤沢市",
      "lat": 35.3313115,
      "lng": 139.4884386,
      "meetings": [
        {
          "meeting_name": "",
          "meeting_type": null,
          "next_date": "2026-08-20",
          "start_time": "19:00",
          "end_time": "20:45",
          "recurrence": "",
          "contact_phone": "",
          "official_url": "",
          "verified": 0
        }
      ]
    },
    {
      "id": 82,
      "facility_name": "横浜市二ツ橋地域ケアプラザ",
      "address": "神奈川県横浜市瀬谷区二ツ橋町８３−４",
      "prefecture": "神奈川県",
      "city": "横浜市 瀬谷区",
      "lat": 35.4655425,
      "lng": 139.4994534,
      "meetings": [
        {
          "meeting_name": "",
          "meeting_type": null,
          "next_date": "2026-09-02",
          "start_time": "18:30",
          "end_time": "20:00",
          "recurrence": "",
          "contact_phone": "",
          "official_url": "",
          "verified": 0
        }
      ]
    },
    {
      "id": 106,
      "facility_name": "明治市民センター",
      "address": "神奈川県藤沢市辻堂新町１丁目１１−２３ 藤沢市消防局南消防署明治出張所",
      "prefecture": "神奈川県",
      "city": "藤沢市",
      "lat": 35.3402371,
      "lng": 139.4493101,
      "meetings": [
        {
          "meeting_name": "",
          "meeting_type": null,
          "next_date": "2026-12-31",
          "start_time": "19:00",
          "end_time": "21:00",
          "recurrence": "MONTHLY",
          "contact_phone": "",
          "official_url": "",
          "verified": 0
        }
      ]
    },
    {
      "id": 260,
      "facility_name": "千葉市 稲毛公民館",
      "address": "千葉県千葉市稲毛区稲毛１丁目１０−１７",
      "prefecture": "千葉県",
      "city": "千葉市 稲毛区",
      "lat": 35.6365597,
      "lng": 140.0834126,
      "meetings": [
        {
          "meeting_name": "",
          "meeting_type": null,
          "next_date": "2027-01-09",
          "start_time": "18:30",
          "end_time": "20:30",
          "recurrence": "",
          "contact_phone": "",
          "official_url": "",
          "verified": 0
        }
      ]
    }
  ]
}